,station_id,name,capacity,lat,lon,community,no_classic_count,no_docks_count,problem_count,total_count,pct_no_classic,pct_no_docks,pct_problem,bin_no_classic,bin_no_docks,bin_problem
0,03a1610c-3ba0-4b85-b512-bc26791cb7ee,Eberhart Ave & 91st St,15,41.729285157254864,-87.6110315322876,CHATHAM,0,0,0,24,0.0,0.0,0.0,0%,0%,0%
1,080ab938-2c1b-4fcf-a83d-74c5ae6ff305,Cottage Grove Ave & 111th Pl,15,41.69170975847015,-87.61000156402588,PULLMAN,0,0,0,24,0.0,0.0,0.0,0%,0%,0%
2,0eeb6baf-c653-4a1a-af17-99f686116b89,Lawndale Ave & 111th St,15,41.69131919221066,-87.71288573741913,MOUNT GREENWOOD,0,0,0,24,0.0,0.0,0.0,0%,0%,0%
3,0f9b826b-8885-4c25-96fd-9e2c2074c34e,Western Ave & 104th St,15,41.70458710218908,-87.68120348453522,BEVERLY,0,0,0,24,0.0,0.0,0.0,0%,0%,0%
4,10327d47-3c3a-433e-9e38-80638da64232,Indiana Ave & 103rd St,15,41.70717027117756,-87.6184719800949,ROSELAND,0,0,0,24,0.0,0.0,0.0,0%,0%,0%
5,13820eba-039d-4231-9228-005ab0f4e451,Bissell St & Armitage Ave*,15,41.9182955629354,-87.65218332409859,LINCOLN PARK,0,0,0,24,0.0,0.0,0.0,0%,0%,0%
6,1436495096608724634,N Clark St & W Elm St,4,41.902901,-87.631282,NEAR NORTH SIDE,24,0,24,24,100.0,0.0,100.0,100%,0%,100%
7,1436495100903691938,W Oakdale Ave & N Broadway,6,41.935581,-87.644042,LAKE VIEW,24,0,24,24,100.0,0.0,100.0,100%,0%,100%
8,1436495105198659242,W Armitage Ave & N Sheffield Ave,8,41.917805,-87.653449,LINCOLN PARK,24,0,24,24,100.0,0.0,100.0,100%,0%,100%
9,1436495105198659246,N Carpenter St & W Lake St,6,41.885586,-87.6531893,NEAR WEST SIDE,24,0,24,24,100.0,0.0,100.0,100%,0%,100%
10,1436495109493626544,W Washington Blvd & N Peoria St,9,41.883043,-87.649931,NEAR WEST SIDE,24,0,24,24,100.0,0.0,100.0,100%,0%,100%
11,1436495109493626546,N Green St & W Lake St,8,41.885579,-87.648484,NEAR WEST SIDE,24,0,24,24,100.0,0.0,100.0,100%,0%,100%
12,1436495115557663136,N Southport Ave & W Newport Ave,8,41.944019,-87.663975,LAKE VIEW,24,0,24,24,100.0,0.0,100.0,100%,0%,100%
13,1436495118083561146,N Sheffield Ave & W Wellington Ave,6,41.9362263,-87.6537676,LAKE VIEW,24,0,24,24,100.0,0.0,100.0,100%,0%,100%
14,1436495119852630436,N Damen Ave & W Chicago Ave,6,41.895809,-87.678519,WEST TOWN,24,0,24,24,100.0,0.0,100.0,100%,0%,100%
15,1436495122378528446,N Paulina St & Lincoln Ave,6,41.943838,-87.671469,LAKE VIEW,24,5,24,24,100.0,20.833333333333332,100.0,100%,15-29%,100%
16,1448642162257565286,S Wentworth Ave & W 111th St,5,41.6926176,-87.6280518,ROSELAND,24,0,24,24,100.0,0.0,100.0,100%,0%,100%
17,1448642162257565290,S Aberdeen St & W 106th St,3,41.701217,-87.649345,WASHINGTON HEIGHTS,24,24,24,24,100.0,100.0,100.0,100%,100%,100%
18,1448642175142467180,S Michigan Ave & E 118th St,6,41.679804,-87.620843,WEST PULLMAN,24,0,24,24,100.0,0.0,100.0,100%,0%,100%
19,1448642175142467184,Avenue L & 114th St,4,41.6881169,-87.5365497,EAST SIDE,24,0,24,24,100.0,0.0,100.0,100%,0%,100%
20,1448642179437434482,W 103rd St & S Avers Ave,10,41.705846,-87.717074,MOUNT GREENWOOD,24,0,24,24,100.0,0.0,100.0,100%,0%,100%
21,1448642179437434486,Martin Luther King Dr & 111th St,6,41.69263895647179,-87.61367386484747,ROSELAND,24,0,24,24,100.0,0.0,100.0,100%,0%,100%
22,1448642183732401786,Woodlawn & 103rd,10,41.707338,-87.59399,PULLMAN,24,0,24,24,100.0,0.0,100.0,100%,0%,100%
23,1448642183732401788,Maryland Ave & 104th St,10,41.705588,-87.602938,PULLMAN,24,0,24,24,100.0,0.0,100.0,100%,0%,100%
24,1448642188027369086,Indiana Ave & 133rd St,6,41.653564,-87.617054,RIVERDALE,24,0,24,24,100.0,0.0,100.0,100%,0%,100%
25,1448642188027369090,Steelworkers Park,6,41.738246,-87.531067,SOUTH CHICAGO,24,0,24,24,100.0,0.0,100.0,100%,0%,100%
26,14d6e4b0-d0cc-4ccb-b757-e596d8c24a99,Torrence Ave & 106th St,15,41.70280085022591,-87.55972623825073,SOUTH DEERING,0,0,0,24,0.0,0.0,0.0,0%,0%,0%
27,1500206163166594382,Ping Tom Park (East),9,41.8579886,-87.6319447,NEAR SOUTH SIDE,24,0,24,24,100.0,0.0,100.0,100%,0%,100%
28,1521679584953491780,Kedzie Ave & 104th St,8,41.7037764,-87.7013952,MOUNT GREENWOOD,24,0,24,24,100.0,0.0,100.0,100%,0%,100%
29,1521686986436309688,Damen Ave & Wabansia Ave,12,41.9122813,-87.6773211,WEST TOWN,24,0,24,24,100.0,0.0,100.0,100%,0%,100%
30,1521690221159885714,Hampden Ct & Diversey Ave,8,41.9325593,-87.6423847,LINCOLN PARK,24,10,24,24,100.0,41.666666666666664,100.0,100%,30-99%,100%
31,1561012870126088744,Central Park Ave & Douglas Blvd,9,41.862355,-87.7157109,NORTH LAWNDALE,24,0,24,24,100.0,0.0,100.0,100%,0%,100%
32,1561012870126088746,Keeler Ave & Roosevelt Rd,9,41.866402,-87.7300171,NORTH LAWNDALE,24,0,24,24,100.0,0.0,100.0,100%,0%,100%
33,1561012874421056044,Pulaski Rd & 21st St,9,41.853452,-87.724541,NORTH LAWNDALE,24,0,24,24,100.0,0.0,100.0,100%,0%,100%
34,1561012874421056046,Harding Ave & 26th St,9,41.8444715,-87.7232647,SOUTH LAWNDALE,24,0,24,24,100.0,0.0,100.0,100%,0%,100%
35,1561012878716023344,Kildare & Cermak,9,41.851414,-87.73215,NORTH LAWNDALE,24,0,24,24,100.0,0.0,100.0,100%,0%,100%
36,1561012878716023346,Lawndale Ave & 30th St,12,41.8389124,-87.7168955,SOUTH LAWNDALE,24,0,24,24,100.0,0.0,100.0,100%,0%,100%
37,1561012883010990646,Komensky Ave & 31st St,9,41.836708,-87.725641,SOUTH LAWNDALE,24,0,24,24,100.0,0.0,100.0,100%,0%,100%
38,1561012887305957948,Lawndale Ave & 16th St,9,41.8591606,-87.7176965,NORTH LAWNDALE,24,0,24,24,100.0,0.0,100.0,100%,0%,100%
39,1561012887305957952,Tripp Ave & 15th St,9,41.860777,-87.7313639,NORTH LAWNDALE,24,0,24,24,100.0,0.0,100.0,100%,0%,100%
40,1561012891600925250,Homan Ave & Fillmore St,9,41.868114,-87.7109257,NORTH LAWNDALE,24,0,24,24,100.0,0.0,100.0,100%,0%,100%
41,1561012895895892548,Kildare Ave & 26th St,9,41.8442315,-87.7321534,SOUTH LAWNDALE,24,0,24,24,100.0,0.0,100.0,100%,0%,100%
42,1561012895895892552,Spaulding Ave & 16th St,9,41.85892,-87.707963,NORTH LAWNDALE,24,0,24,24,100.0,0.0,100.0,100%,0%,100%
43,1561012900190859852,Tripp Ave & 31st St,9,41.836966,-87.730502,SOUTH LAWNDALE,24,0,24,24,100.0,0.0,100.0,100%,0%,100%
44,1563698675436490728,Meade Ave & Diversey Ave,9,41.9309018,-87.7784686,BELMONT CRAGIN,24,24,24,24,100.0,100.0,100.0,100%,100%,100%
45,1563698675436490730,Narragansett & Wrightwood,9,41.927294,-87.7852027,BELMONT CRAGIN,24,0,24,24,100.0,0.0,100.0,100%,0%,100%
46,1563698679731458030,Parkside Ave & Armitage Ave,9,41.9169054,-87.7671806,BELMONT CRAGIN,24,0,24,24,100.0,0.0,100.0,100%,0%,100%
47,1563698679731458032,Fullerton & Monitor,9,41.9237918,-87.7723116,BELMONT CRAGIN,24,0,24,24,100.0,0.0,100.0,100%,0%,100%
48,1563698684026425330,Central Ave & Parker Ave,9,41.9301785,-87.7661217,BELMONT CRAGIN,24,0,24,24,100.0,0.0,100.0,100%,0%,100%
49,1563698688321392628,Long Ave & Belmont Ave,9,41.9383071,-87.761663,BELMONT CRAGIN,24,0,24,24,100.0,0.0,100.0,100%,0%,100%
50,1563698688321392630,Long Ave & Belden Ave,9,41.9227049,-87.760954,BELMONT CRAGIN,24,0,24,24,100.0,0.0,100.0,100%,0%,100%
51,1563698701206292480,Lamon Ave & Belmont Ave,9,41.9390108,-87.7492834,PORTAGE PARK,24,0,24,24,100.0,0.0,100.0,100%,0%,100%
52,1563698701206292482,Cicero Ave & Grace St,6,41.94973,-87.7469526,PORTAGE PARK,24,0,24,24,100.0,0.0,100.0,100%,0%,100%
53,1563698705501259788,Kilpatrick Ave & Parker Ave,9,41.930736,-87.744082,BELMONT CRAGIN,24,0,24,24,100.0,0.0,100.0,100%,0%,100%
54,1563698709796227088,Kilbourn & Belden,9,41.922352,-87.739024,HERMOSA,24,0,24,24,100.0,0.0,100.0,100%,0%,100%
55,1563698718386161684,Mason Ave & Belmont Ave,9,41.9383682,-87.7725029,BELMONT CRAGIN,24,0,24,24,100.0,0.0,100.0,100%,0%,100%
56,1563698718386161690,Oak Park & Wellington,9,41.934586,-87.7959613,MONTCLARE,24,0,24,24,100.0,0.0,100.0,100%,0%,100%
57,1563698718386161692,Mulligan Ave & Wellington Ave,9,41.9347409,-87.7844017,BELMONT CRAGIN,24,0,24,24,100.0,0.0,100.0,100%,0%,100%
58,1563698722681128992,Sayre & Diversey,9,41.9310084,-87.8010646,MONTCLARE,24,0,24,24,100.0,0.0,100.0,100%,0%,100%
59,1571105042230683636,Oketo Ave & Addison St,9,41.9449659,-87.8118989,DUNNING,24,0,24,24,100.0,0.0,100.0,100%,0%,100%
60,1571105042230683640,Panama Ave & Grace St,9,41.9476665,-87.829258,DUNNING,24,0,24,24,100.0,0.0,100.0,100%,0%,100%
61,1571105046525650938,Shabbona Park,9,41.944847,-87.799326,DUNNING,24,0,24,24,100.0,0.0,100.0,100%,0%,100%
62,1571105050820616194,Central Ave & Roscoe St,9,41.942258,-87.7669331,PORTAGE PARK,24,0,24,24,100.0,0.0,100.0,100%,0%,100%
63,1571105050820616196,Narragansett Ave & School St,9,41.940128,-87.7864806,DUNNING,24,0,24,24,100.0,0.0,100.0,100%,0%,100%
64,1571105055115583496,Long & Irving Park,9,41.953038,-87.7621632,PORTAGE PARK,24,24,24,24,100.0,100.0,100.0,100%,100%,100%
65,1571105055115583500,Roscoe & Harlem,9,41.9416062,-87.8072964,DUNNING,24,0,24,24,100.0,0.0,100.0,100%,0%,100%
66,1571105055115583502,Orange & Addison,9,41.9448846,-87.82423,DUNNING,24,0,24,24,100.0,0.0,100.0,100%,0%,100%
67,1571105059410550802,Plainfield & Irving Park,9,41.952037,-87.833283,DUNNING,24,0,24,24,100.0,0.0,100.0,100%,0%,100%
68,1571105059410550806,Harlem & Irving Park,9,41.9532568,-87.8071434,DUNNING,24,24,24,24,100.0,100.0,100.0,100%,100%,100%
69,1571105063705518104,Harlem Ave & Grace St,9,41.9488531,-87.806938,DUNNING,24,0,24,24,100.0,0.0,100.0,100%,0%,100%
70,1571105063705518106,Meade Ave & Addison St,9,41.9459174,-87.7788824,DUNNING,24,0,24,24,100.0,0.0,100.0,100%,0%,100%
71,1571105068000485406,Narragansett & Irving Park,9,41.952614,-87.7853829,DUNNING,24,11,24,24,100.0,45.833333333333336,100.0,100%,30-99%,100%
72,1575949489503728316,Monticello Ave & Chicago Ave,6,41.8952089,-87.7174329,HUMBOLDT PARK,24,0,24,24,100.0,0.0,100.0,100%,0%,100%
73,1575949493798695614,Lamon Ave & Chicago Ave,9,41.8952,-87.748223,AUSTIN,24,0,24,24,100.0,0.0,100.0,100%,0%,100%
74,1575949493798695616,Kildare Ave & Division St,9,41.902393,-87.733598,HUMBOLDT PARK,24,0,24,24,100.0,0.0,100.0,100%,0%,100%
75,1575949498093662914,Lavergne Ave & Division St,9,41.902513,-87.750869,AUSTIN,24,0,24,24,100.0,0.0,100.0,100%,0%,100%
76,1575949498093662918,Menard Ave & Division St,9,41.902269,-87.7704807,AUSTIN,24,0,24,24,100.0,0.0,100.0,100%,0%,100%
77,1575949502388630222,Leamington Ave & Hirsch St,9,41.9058405,-87.7548602,AUSTIN,24,0,24,24,100.0,0.0,100.0,100%,0%,100%
78,1575949506683597522,Major Ave & Bloomingdale Ave,9,41.9125923,-87.7686995,AUSTIN,24,0,24,24,100.0,0.0,100.0,100%,0%,100%
79,1575949506683597526,Narragansett & McLean,9,41.9158931,-87.7851104,AUSTIN,24,0,24,24,100.0,0.0,100.0,100%,0%,100%
80,1575949510978564828,North Ave & New England Ave,9,41.9092204,-87.7971406,AUSTIN,24,0,24,24,100.0,0.0,100.0,100%,0%,100%
81,1575949510978564830,Central Park Ave & Ohio St,9,41.8918718,-87.7163879,HUMBOLDT PARK,24,0,24,24,100.0,0.0,100.0,100%,0%,100%
82,1575949515273532128,Central Park & Augusta Blvd,9,41.8989108,-87.7164901,HUMBOLDT PARK,24,0,24,24,100.0,0.0,100.0,100%,0%,100%
83,1575949515273532130,Kildare Ave & Chicago Ave,9,41.8954359,-87.7335726,HUMBOLDT PARK,24,0,24,24,100.0,0.0,100.0,100%,0%,100%
84,1575949519568499428,Hamlin Ave & Grand Ave,9,41.904035,-87.721563,HUMBOLDT PARK,24,0,24,24,100.0,0.0,100.0,100%,0%,100%
85,1575949519568499430,Augusta Blvd & Laramie Ave,9,41.8986607,-87.7554551,AUSTIN,24,0,24,24,100.0,0.0,100.0,100%,0%,100%
86,1575949523863466730,Long Ave & North Ave,9,41.909212,-87.760999,AUSTIN,24,0,24,24,100.0,0.0,100.0,100%,0%,100%
87,1575949528158434034,Bloomingdale Ave & Harlem Ave,9,41.9120739,-87.8057657,AUSTIN,24,0,24,24,100.0,0.0,100.0,100%,0%,100%
88,1575949528657471478,Menard Ave & North Ave,9,41.9097167,-87.7702037,AUSTIN,24,0,24,24,100.0,0.0,100.0,100%,0%,100%
89,1575949532952438778,Nordica & Medill,9,41.922278,-87.8020357,MONTCLARE,24,0,24,24,100.0,0.0,100.0,100%,0%,100%
90,1582242276682913304,Rockwell St & 57th St,6,41.7903484,-87.6889201,GAGE PARK,24,0,24,24,100.0,0.0,100.0,100%,0%,100%
91,1582242280977880602,St Louis Ave & 59th St,9,41.785987,-87.7105616,CHICAGO LAWN,24,0,24,24,100.0,0.0,100.0,100%,0%,100%
92,1582242280977880604,Richmond St & 59th St,9,41.7865155,-87.6973314,GAGE PARK,24,0,24,24,100.0,0.0,100.0,100%,0%,100%
93,1582242285272847904,Maplewood Ave & 59th St,9,41.7863375,-87.6874351,CHICAGO LAWN,24,0,24,24,100.0,0.0,100.0,100%,0%,100%
94,1582242289567815208,Rockwell St & 63rd St,6,41.7787905,-87.6885894,CHICAGO LAWN,24,0,24,24,100.0,0.0,100.0,100%,0%,100%
95,1582242289567815212,Homan Ave & 65th St,9,41.775144,-87.708129,CHICAGO LAWN,24,0,24,24,100.0,0.0,100.0,100%,0%,100%
96,1582242293862782510,Rockwell St & Archer Ave,9,41.823324,-87.689685,BRIGHTON PARK,24,0,24,24,100.0,0.0,100.0,100%,0%,100%
97,1582242293862782512,Fairfield Ave & 44th St,9,41.813617,-87.6932272,BRIGHTON PARK,24,0,24,24,100.0,0.0,100.0,100%,0%,100%
98,1582242298157749812,Francisco Ave & 47th St,9,41.8084245,-87.696619,BRIGHTON PARK,24,0,24,24,100.0,0.0,100.0,100%,0%,100%
99,1582242298157749814,Kedzie Ave & 48th Pl,12,41.8047515,-87.7041145,BRIGHTON PARK,24,0,24,24,100.0,0.0,100.0,100%,0%,100%
100,1582242302452717114,Campbell Ave & 51st St,9,41.8009585,-87.6867556,GAGE PARK,24,0,24,24,100.0,0.0,100.0,100%,0%,100%
101,1582242302452717116,Kedzie Ave & 52nd St,9,41.7990641,-87.703446,GAGE PARK,24,0,24,24,100.0,0.0,100.0,100%,0%,100%
102,1582242306747684414,St Louis Ave & Norman Bobbins Ave,9,41.794422,-87.71137,GAGE PARK,24,0,24,24,100.0,0.0,100.0,100%,0%,100%
103,1582242306747684418,Artesian Ave & 55th St,12,41.7940135,-87.685807,GAGE PARK,24,0,24,24,100.0,0.0,100.0,100%,0%,100%
104,1582242311042651716,Spaulding Ave & 63rd St,1,41.7791655,-87.7056392,CHICAGO LAWN,24,0,24,24,100.0,0.0,100.0,100%,0%,100%
105,1582242311042651720,Hoyne Ave & 34th St,9,41.8320245,-87.6778387,MCKINLEY PARK,24,0,24,24,100.0,0.0,100.0,100%,0%,100%
106,1582242315337619018,Kedzie Ave & 45th St,6,41.8113904,-87.7040052,BRIGHTON PARK,24,3,24,24,100.0,12.5,100.0,100%,1-14%,100%
107,1582242315337619020,California Ave & 36th St,9,41.8282301,-87.6945422,BRIGHTON PARK,24,0,24,24,100.0,0.0,100.0,100%,0%,100%
108,1582242319632586318,Sacramento Ave & Pershing Rd,9,41.8222791,-87.6996576,BRIGHTON PARK,24,0,24,24,100.0,0.0,100.0,100%,0%,100%
109,1582242319632586320,Archer Ave & 43rd St,6,41.8154913,-87.7024412,BRIGHTON PARK,24,0,24,24,100.0,0.0,100.0,100%,0%,100%
110,1582242323927553620,Kedzie Ave & 57th St,9,41.789944,-87.703233,GAGE PARK,24,0,24,24,100.0,0.0,100.0,100%,0%,100%
111,1582242323927553626,Western Ave & 62nd St,1,41.780985,-87.6834204,CHICAGO LAWN,24,24,24,24,100.0,100.0,100.0,100%,100%,100%
112,1591541115825893018,MTV Hubbard St,6,41.8897772,-87.680351,WEST TOWN,24,0,24,24,100.0,0.0,100.0,100%,0%,100%
113,1593766334653391752,Pulaski Rd & 51st St,12,41.800434,-87.7247496,ARCHER HEIGHTS,24,0,24,24,100.0,0.0,100.0,100%,0%,100%
114,1593766334653391756,Lavergne Ave & 46th St,9,41.80934,-87.7478312,GARFIELD RIDGE,24,0,24,24,100.0,0.0,100.0,100%,0%,100%
115,1593766338948359058,Lawler Ave & 50th St,9,41.802209,-87.7489007,GARFIELD RIDGE,24,0,24,24,100.0,0.0,100.0,100%,0%,100%
116,1593766338948359064,Kildare Ave & 55th St,9,41.793357,-87.730598,WEST ELSDON,24,0,24,24,100.0,0.0,100.0,100%,0%,100%
117,1593766343243326364,Pulaski Rd & 60th St,9,41.784186,-87.722564,WEST LAWN,24,0,24,24,100.0,0.0,100.0,100%,0%,100%
118,1593766347538293664,Kildare Ave & 47th St,6,41.807526,-87.7308406,ARCHER HEIGHTS,24,0,24,24,100.0,0.0,100.0,100%,0%,100%
119,1593766347538293666,Kostner Ave & 63rd St,9,41.778747,-87.732463,WEST LAWN,24,0,24,24,100.0,0.0,100.0,100%,0%,100%
120,1594041777104953202,Komensky Ave & 55th St,9,41.793279,-87.724189,WEST ELSDON,24,0,24,24,100.0,0.0,100.0,100%,0%,100%
121,1594041777104953206,Hamlin Ave & 62nd Pl,12,41.779953,-87.7178221,WEST LAWN,24,0,24,24,100.0,0.0,100.0,100%,0%,100%
122,1594041781399920504,Tripp Ave & 65th St,9,41.7749163,-87.728841,WEST LAWN,24,0,24,24,100.0,0.0,100.0,100%,0%,100%
123,1594041781399920506,Springfield Ave & 47th St,9,41.8080713,-87.7212202,ARCHER HEIGHTS,24,0,24,24,100.0,0.0,100.0,100%,0%,100%
124,1594041785694887804,Pulaski & Ann Lurie Pl,9,41.8162761,-87.7246058,ARCHER HEIGHTS,24,0,24,24,100.0,0.0,100.0,100%,0%,100%
125,1594041785694887806,Kenneth Ave & 50th St,6,41.8023156,-87.7344142,ARCHER HEIGHTS,24,0,24,24,100.0,0.0,100.0,100%,0%,100%
126,1594046362333434512,Damen Ave & 33rd St,9,41.834108,-87.67559,MCKINLEY PARK,24,0,24,24,100.0,0.0,100.0,100%,0%,100%
127,1594046370923369112,Campbell Ave & Augusta Blvd,9,41.899578,-87.689497,WEST TOWN,24,0,24,24,100.0,0.0,100.0,100%,0%,100%
128,1594046370923369114,Francisco Ave & Chicago Ave,9,41.895745,-87.698653,WEST TOWN,24,0,24,24,100.0,0.0,100.0,100%,0%,100%
129,1594046379513303716,Sacramento Blvd & Fulton Ave,9,41.886528,-87.70167,EAST GARFIELD PARK,24,0,24,24,100.0,0.0,100.0,100%,0%,100%
130,1594046379513303720,Western Ave & Lake St,6,41.884606,-87.685853,NEAR WEST SIDE,24,0,24,24,100.0,0.0,100.0,100%,0%,100%
131,1594046383808271020,Washtenaw Ave & Madison St,9,41.881286,-87.69396,EAST GARFIELD PARK,24,0,24,24,100.0,0.0,100.0,100%,0%,100%
132,1594046383808271024,Troy St & Jackson Blvd,9,41.877505,-87.70485,EAST GARFIELD PARK,24,0,24,24,100.0,0.0,100.0,100%,0%,100%
133,1594046388103238324,Mozart St & Jackson Blvd,6,41.877507,-87.6974,EAST GARFIELD PARK,24,0,24,24,100.0,0.0,100.0,100%,0%,100%
134,1594046388103238326,Sacramento Blvd & Polk St,9,41.870959,-87.700259,EAST GARFIELD PARK,24,0,24,24,100.0,0.0,100.0,100%,0%,100%
135,1594046392398205624,Washtenaw Ave & Polk St,9,41.8711028,-87.693683,EAST GARFIELD PARK,24,0,24,24,100.0,0.0,100.0,100%,0%,100%
136,1594046392398205628,Albany Ave & Douglas Blvd,9,41.86314,-87.703022,NORTH LAWNDALE,24,0,24,24,100.0,0.0,100.0,100%,0%,100%
137,1594046396693172926,Albany Ave & 16th St,9,41.85936,-87.70302,NORTH LAWNDALE,24,0,24,24,100.0,0.0,100.0,100%,0%,100%
138,1594046400988140226,Sacramento Ave & 25th St,9,41.846506,-87.700139,SOUTH LAWNDALE,24,0,24,24,100.0,0.0,100.0,100%,0%,100%
139,1594046400988140228,Rockwell St & Cermak Rd,9,41.851644,-87.690621,SOUTH LAWNDALE,24,0,24,24,100.0,0.0,100.0,100%,0%,100%
140,1594046405283107528,California & 16th St,9,41.859228,-87.695562,NORTH LAWNDALE,24,0,24,24,100.0,0.0,100.0,100%,0%,100%
141,1594046405283107532,Whipple St & Roosevelt Rd,9,41.866554,-87.701329,NORTH LAWNDALE,24,0,24,24,100.0,0.0,100.0,100%,0%,100%
142,1594046409578074830,Milwaukee Ave & Fullerton Ave,9,41.924691,-87.70055,LOGAN SQUARE,24,2,24,24,100.0,8.333333333333334,100.0,100%,1-14%,100%
143,1594046409578074834,Francisco Ave & Bloomingdale Ave,9,41.913959,-87.699368,LOGAN SQUARE,24,0,24,24,100.0,0.0,100.0,100%,0%,100%
144,1594046413873042132,Western Ave & Grace St,9,41.95039,-87.688234,NORTH CENTER,24,0,24,24,100.0,0.0,100.0,100%,0%,100%
145,1594046413873042136,Sacramento Blvd & Addison St,9,41.94609,-87.702988,AVONDALE,24,0,24,24,100.0,0.0,100.0,100%,0%,100%
146,1594046418168009436,Elston Ave & Henderson St,9,41.941499,-87.701051,AVONDALE,24,11,24,24,100.0,45.833333333333336,100.0,100%,30-99%,100%
147,1594046418168009438,Albany Ave & Belmont Ave,9,41.939638,-87.705263,AVONDALE,24,0,24,24,100.0,0.0,100.0,100%,0%,100%
148,1594046422462976736,Rockwell St & Fletcher St,9,41.938689,-87.692972,AVONDALE,24,18,24,24,100.0,75.0,100.0,100%,30-99%,100%
149,1594046422462976738,Kedzie Ave & George St,9,41.933886,-87.707262,AVONDALE,24,0,24,24,100.0,0.0,100.0,100%,0%,100%
150,1594046426757944042,Western Ave & Berteau Ave,6,41.95774,-87.688273,NORTH CENTER,24,0,24,24,100.0,0.0,100.0,100%,0%,100%
151,1594046431052911340,Campbell Ave & Irving Park Rd,9,41.953634,-87.690782,NORTH CENTER,24,0,24,24,100.0,0.0,100.0,100%,0%,100%
152,1594046435347878642,Virginia Ave & Catalpa Ave,9,41.9812456,-87.7048924,LINCOLN SQUARE,24,0,24,24,100.0,0.0,100.0,100%,0%,100%
153,1594046435347878644,Lincoln Ave & Balmoral Ave,9,41.979461,-87.693013,LINCOLN SQUARE,24,0,24,24,100.0,0.0,100.0,100%,0%,100%
154,1594046439642845942,California Ave & Winona St,6,41.974712,-87.697852,LINCOLN SQUARE,24,15,24,24,100.0,62.5,100.0,100%,30-99%,100%
155,1594046439642845944,N Shore Channel Trail & Argyle St,9,41.972177,-87.702749,LINCOLN SQUARE,24,8,24,24,100.0,33.333333333333336,100.0,100%,30-99%,100%
156,1594046443937813244,Western Ave & Gunnison St,9,41.969659,-87.68955,LINCOLN SQUARE,24,7,24,24,100.0,29.166666666666668,100.0,100%,15-29%,100%
157,1594046448232780546,Troy Ave & 27th St,9,41.84265,-87.70401,SOUTH LAWNDALE,24,24,24,24,100.0,100.0,100.0,100%,100%,100%
158,1594046448232780548,California Ave & 29th St,9,41.840222,-87.694129,SOUTH LAWNDALE,24,0,24,24,100.0,0.0,100.0,100%,0%,100%
159,1594046448262943690,Francisco Ave & Montrose Ave,9,41.9610471,-87.700901,IRVING PARK,24,0,24,24,100.0,0.0,100.0,100%,0%,100%
160,1594046452527747848,Elston Ave & George St,9,41.934003,-87.690823,AVONDALE,24,0,24,24,100.0,0.0,100.0,100%,0%,100%
161,1594046456822715150,Francisco Ave & Hollywood Ave,9,41.984746,-87.701593,WEST RIDGE,24,5,24,24,100.0,20.833333333333332,100.0,100%,15-29%,100%
162,1594046456822715152,Richmond St & Lincoln Ave,6,41.988281,-87.703034,WEST RIDGE,24,16,24,24,100.0,66.66666666666667,100.0,100%,30-99%,100%
163,1594046456830870690,Troy St & Grace St,9,41.950244,-87.706489,IRVING PARK,24,0,24,24,100.0,0.0,100.0,100%,0%,100%
164,1594046461117682452,Washtenaw Ave & Peterson Ave,9,41.99066,-87.697075,WEST RIDGE,24,0,24,24,100.0,0.0,100.0,100%,0%,100%
165,1594046465420805300,Western Ave & Ardmore Ave,9,41.9867636,-87.6898796,WEST RIDGE,24,0,24,24,100.0,0.0,100.0,100%,0%,100%
166,1606778059648526978,Whipple/Irving Park,9,41.954189,-87.704448,IRVING PARK,24,0,24,24,100.0,0.0,100.0,100%,0%,100%
167,1622723153590485808,Mayfield & Roosevelt Rd,9,41.8658158,-87.7717805,AUSTIN,24,0,24,24,100.0,0.0,100.0,100%,0%,100%
168,1622724289952663440,La Villita Park (Albany/30th),9,41.8392528,-87.7020207,SOUTH LAWNDALE,24,0,24,24,100.0,0.0,100.0,100%,0%,100%
169,1753333909108677614,Hastings LWS,6,41.8635164,-87.6797485,NEAR WEST SIDE,24,0,24,24,100.0,0.0,100.0,100%,0%,100%
170,1754781885939323186,Stony Island Ave & 63rd St,11,41.780506,-87.586853,WOODLAWN,5,0,5,24,20.833333333333332,0.0,20.833333333333332,15-29%,0%,15-29%
171,1775509322900183222,Elizabeth St & Randolph St,11,41.884336,-87.658902,NEAR WEST SIDE,2,0,2,24,8.333333333333334,0.0,8.333333333333334,1-14%,0%,1-14%
172,1789242536879942642,Halsted St & Fulton St,19,41.886871,-87.648089,NEAR WEST SIDE,7,0,7,24,29.166666666666668,0.0,29.166666666666668,15-29%,0%,15-29%
173,1799277526470631980,Lincoln Ave & Byron St,15,41.952372,-87.677296,NORTH CENTER,0,1,1,24,0.0,4.166666666666667,4.166666666666667,0%,1-14%,1-14%
174,1838613156025764214,Drexel Ave & 60th St,15,41.785861,-87.604553,WOODLAWN,1,0,1,24,4.166666666666667,0.0,4.166666666666667,1-14%,0%,1-14%
175,1850866657089146912,Blackstone Ave & 59th St,19,41.787877,-87.590461,HYDE PARK,0,1,1,24,0.0,4.166666666666667,4.166666666666667,0%,1-14%,1-14%
176,1850867138125484782,Woodlawn Ave & 58th St,11,41.789381,-87.596479,HYDE PARK,0,2,2,24,0.0,8.333333333333334,8.333333333333334,0%,1-14%,1-14%
177,1850868044363584392,University Ave & 59th St,15,41.787878,-87.598906,HYDE PARK,0,0,0,24,0.0,0.0,0.0,0%,0%,0%
178,1859027847673133268,Monticello Ave & Lawrence Ave,11,41.968204,-87.719547,ALBANY PARK,3,0,3,24,12.5,0.0,12.5,1-14%,0%,1-14%
179,1859717449875884116,Kedzie Ave & 66th Pl,15,41.772584,-87.703007,CHICAGO LAWN,0,0,0,24,0.0,0.0,0.0,0%,0%,0%
180,1859717767703464460,Kedzie Ave & Redfield Dr,15,41.76523,-87.70316,CHICAGO LAWN,0,0,0,24,0.0,0.0,0.0,0%,0%,0%
181,1859718111300847802,Artesian Ave & Marquette Rd,15,41.77203,-87.684637,CHICAGO LAWN,0,0,0,24,0.0,0.0,0.0,0%,0%,0%
182,1861588043429399408,McCormick Blvd & Devon Ave,11,41.997136,-87.711217,NORTH PARK,0,0,0,24,0.0,0.0,0.0,0%,0%,0%
183,1861589903150238332,California Ave & 71st St,15,41.764748,-87.693121,CHICAGO LAWN,0,0,0,24,0.0,0.0,0.0,0%,0%,0%
184,1861593053874186306,Artesian Ave & 71st St,15,41.764345,-87.684417,CHICAGO LAWN,0,0,0,24,0.0,0.0,0.0,0%,0%,0%
185,1861594737501366386,Springfield Ave & 71st St,15,41.764484,-87.720028,WEST LAWN,0,0,0,24,0.0,0.0,0.0,0%,0%,0%
186,1861613253877461614,St. Louis & 71st St,15,41.764354,-87.710121,CHICAGO LAWN,0,0,0,24,0.0,0.0,0.0,0%,0%,0%
187,1861996658372408268,Kostner Ave & Wrightwood Ave,15,41.927957,-87.735952,HERMOSA,0,0,0,24,0.0,0.0,0.0,0%,0%,0%
188,1861997616150114834,Kenosha Ave & Wellington Ave,15,41.934457,-87.733795,HERMOSA,0,0,0,24,0.0,0.0,0.0,0%,0%,0%
189,1862806445904101456,Buckingham Fountain,39,41.876665,-87.620483,LOOP,0,2,2,24,0.0,8.333333333333334,8.333333333333334,0%,1-14%,1-14%
190,1863873159929715228,Damen Ave & 81st St,15,41.746534,-87.673055,AUBURN GRESHAM,0,0,0,24,0.0,0.0,0.0,0%,0%,0%
191,1863873701095594368,Wood St & 84th St,15,41.741192,-87.668106,AUBURN GRESHAM,0,0,0,24,0.0,0.0,0.0,0%,0%,0%
192,1863877673940343638,California Ave & Marquette Rd,15,41.771611,-87.693331,CHICAGO LAWN,0,0,0,24,0.0,0.0,0.0,0%,0%,0%
193,1863878044896486356,Kilpatrick Ave & Grand Ave,15,41.912732,-87.743636,AUSTIN,0,0,0,24,0.0,0.0,0.0,0%,0%,0%
194,1866476160171649058,Damen Ave/Coulter St,12,41.8492,-87.67564,LOWER WEST SIDE,24,0,24,24,100.0,0.0,100.0,100%,0%,100%
195,1866476559603607834,Streeter Dr/Grand Ave,4,41.892401,-87.612388,NEAR NORTH SIDE,24,0,24,24,100.0,0.0,100.0,100%,0%,100%
196,1866477298337982542,Leavitt St/North Ave,4,41.910077,-87.682306,WEST TOWN,24,15,24,24,100.0,62.5,100.0,100%,30-99%,100%
197,1866822399451882164,Lincoln Ave & Peterson Ave,15,41.990267,-87.70857,WEST RIDGE,0,0,0,24,0.0,0.0,0.0,0%,0%,0%
198,1867227665093179888,Kenneth Ave & Lawrence Ave,15,41.967943,-87.739983,IRVING PARK,0,0,0,24,0.0,0.0,0.0,0%,0%,0%
199,1867616044298100822,Springfield Ave & North Ave,15,41.910158,-87.723831,HUMBOLDT PARK,0,0,0,24,0.0,0.0,0.0,0%,0%,0%
200,1867616662773391950,Karlov Ave & Armitage Ave,15,41.91748,-87.728952,HERMOSA,0,0,0,24,0.0,0.0,0.0,0%,0%,0%
201,1867617341378224632,Karlov Ave & Lawrence Ave,15,41.967947,-87.730409,ALBANY PARK,0,0,0,24,0.0,0.0,0.0,0%,0%,0%
202,1869036027793202092,Lavergne Ave & Fullerton Ave,15,41.924034,-87.751191,BELMONT CRAGIN,0,0,0,24,0.0,0.0,0.0,0%,0%,0%
203,1869052846885132442,Kedzie Ave & 73rd St,15,41.760703,-87.702292,CHICAGO LAWN,0,0,0,24,0.0,0.0,0.0,0%,0%,0%
204,1869054242749504212,Kilbourn Ave & Roscoe St,15,41.942722,-87.739557,IRVING PARK,0,0,0,24,0.0,0.0,0.0,0%,0%,0%
205,1869786699581020630,Paulina Ave & 87th St,15,41.735629,-87.66552,AUBURN GRESHAM,0,0,0,24,0.0,0.0,0.0,0%,0%,0%
206,1870193411073343610,California Ave & Granville Ave,15,41.994028,-87.699302,WEST RIDGE,0,0,0,24,0.0,0.0,0.0,0%,0%,0%
207,1870208802121658482,Rainbow - Beach,15,41.75787144829,-87.54938625,SOUTH SHORE,24,0,24,24,100.0,0.0,100.0,100%,0%,100%
208,1871990322214447924,Lamon Ave & Armitage Ave,15,41.91676,-87.749458,BELMONT CRAGIN,0,0,0,24,0.0,0.0,0.0,0%,0%,0%
209,1871992980799203880,Mozart St & 79th St,15,41.749702,-87.693917,ASHBURN,0,0,0,24,0.0,0.0,0.0,0%,0%,0%
210,1872721263815561908,Damen Ave & 87th St,15,41.736044,-87.672861,AUBURN GRESHAM,24,0,24,24,100.0,0.0,100.0,100%,0%,100%
211,1872721624592814362,Lockwood Ave & Wrightwood Ave,15,41.927766,-87.758544,BELMONT CRAGIN,0,0,0,24,0.0,0.0,0.0,0%,0%,0%
212,1872721938125427506,Kedzie Ave & 83rd St,15,41.742523,-87.702279,ASHBURN,0,0,0,24,0.0,0.0,0.0,0%,0%,0%
213,1872722290312745226,Pulaski Rd & 84th St,15,41.740407,-87.721907,ASHBURN,0,0,0,24,0.0,0.0,0.0,0%,0%,0%
214,1872723419889143870,Columbus Ave & 83rd Pl,15,41.741346,-87.713696,ASHBURN,24,0,24,24,100.0,0.0,100.0,100%,0%,100%
215,1879439147302566804,Columbus Ave & 79th St,7,41.749119,-87.704263,ASHBURN,24,0,24,24,100.0,0.0,100.0,100%,0%,100%
216,1ce9b7b2-6ef1-4e3b-abd4-85dedaf0ee65,State St & Chicago Ave,15,41.89661720040753,-87.62857854366302,NEAR NORTH SIDE,2,0,2,24,8.333333333333334,0.0,8.333333333333334,1-14%,0%,1-14%
217,1e7e4cf3-a16b-4cb7-9ead-fdd71e07ea77,Yates Blvd & 93rd St,15,41.72616639024511,-87.5662761926651,CALUMET HEIGHTS,0,0,0,24,0.0,0.0,0.0,0%,0%,0%
218,22afe78c-e8f7-4a80-969e-7ddeafdf49da,Halsted St & 104th St,15,41.70513978893236,-87.6424241065979,ROSELAND,0,0,0,24,0.0,0.0,0.0,0%,0%,0%
219,2a80f8d9-85dc-4c36-ba07-86d775ffd1ee,Baltimore Ave & 87th St,15,41.73733560041666,-87.54851460456847,SOUTH CHICAGO,0,0,0,24,0.0,0.0,0.0,0%,0%,0%
220,2f5957e4-e83a-4d5a-b073-ec9422989315,Commercial Ave & 100th St,15,41.71331739547703,-87.55109757184982,SOUTH DEERING,0,0,0,24,0.0,0.0,0.0,0%,0%,0%
221,34dc92b5-7cb7-4536-856b-46644d31b48c,State St & 123rd St,15,41.67064383687979,-87.62258648872375,WEST PULLMAN,0,0,0,24,0.0,0.0,0.0,0%,0%,0%
222,391d5cd8-c87c-42f8-94df-823f94284005,Calumet Park,15,41.71370983035615,-87.53084421157837,EAST SIDE,0,0,0,24,0.0,0.0,0.0,0%,0%,0%
223,3d1da4c7-23c9-4731-81f5-91db08f6c97f,Constance Ave & 95th St,15,41.72229074095262,-87.57896840572357,SOUTH DEERING,0,0,0,24,0.0,0.0,0.0,0%,0%,0%
224,430d5876-c44d-446e-ac53-065da9fb9c17,Green St & Randolph St*,12,41.883601657275165,-87.64862671494483,NEAR WEST SIDE,0,0,0,24,0.0,0.0,0.0,0%,0%,0%
225,4843d153-c725-4230-a4c7-402da6a62143,Lincoln Ave & Roscoe St*,15,41.9433502470174,-87.67066776752472,LAKE VIEW,0,0,0,24,0.0,0.0,0.0,0%,0%,0%
226,48b2ed2f-18aa-4a9b-b27d-db9f6d0c8c16,Homewood Ave & 115th St,15,41.68459507202618,-87.67070800065994,MORGAN PARK,0,0,0,24,0.0,0.0,0.0,0%,0%,0%
227,4b4b0d88-80e0-4ef9-a8d1-cdd6a16722f9,Oglesby Ave & 100th St,15,41.71339748442245,-87.56584167480469,SOUTH DEERING,0,0,0,24,0.0,0.0,0.0,0%,0%,0%
228,4c57c316-82a8-4b9d-a16c-ae7922a2057a,Wentworth Ave & 104th St,15,41.705307996998194,-87.62921690940857,ROSELAND,0,0,0,24,0.0,0.0,0.0,0%,0%,0%
229,4fcebf8a-b065-4cd1-a167-211a45ada30e,Dauphin Ave & 103rd St,15,41.7072503677818,-87.60766267776489,ROSELAND,0,0,0,24,0.0,0.0,0.0,0%,0%,0%
230,532a6e43-6efc-4c87-81a8-c75dfd8e8fde,Wentworth Ave & Cermak Rd*,16,41.853214418519656,-87.63187229633331,ARMOUR SQUARE,0,0,0,24,0.0,0.0,0.0,0%,0%,0%
231,56eccb5b-f4d7-43c5-b554-a6a0a7585e5e,Avenue O & 118th St,15,41.68100145911039,-87.5379312226869,HEGEWISCH,0,0,0,24,0.0,0.0,0.0,0%,0%,0%
232,59019cbc-47d4-4743-afb2-e71e9767df0c,Clyde Ave & 87th St,15,41.73715146431056,-87.57274031639099,AVALON PARK,0,0,0,24,0.0,0.0,0.0,0%,0%,0%
233,61695579-2f75-4090-a071-c76079b5fb5d,Michigan Ave & 71st St,7,41.765286,-87.621748,GREATER GRAND CROSSING,0,21,21,24,0.0,87.5,87.5,0%,30-99%,30-99%
234,625e37ea-24ea-4f13-9a54-6322466ec521,Dauphin Ave & 87th St,15,41.73648,-87.601252,CHATHAM,0,0,0,24,0.0,0.0,0.0,0%,0%,0%
235,62cb5f1d-7dcb-4fe1-849f-d928288d73b9,Ada St & 113th St,15,41.687561623357375,-87.65547573566435,MORGAN PARK,0,0,0,24,0.0,0.0,0.0,0%,0%,0%
236,6849c4e2-cffa-432b-8d83-5c0524594b4f,Marquette Ave & 89th St,15,41.73366879071472,-87.55834221839905,SOUTH CHICAGO,0,0,0,24,0.0,0.0,0.0,0%,0%,0%
237,6997d1fb-9887-4c15-b5db-524d45a2f101,Ashland Ave & 74th St,15,41.75923602425868,-87.66347408294678,WEST ENGLEWOOD,0,0,0,24,0.0,0.0,0.0,0%,0%,0%
238,6fd280b0-74de-4a89-947d-3be40afa079c,Altgeld Gardens,15,41.65666552967373,-87.59880065917969,RIVERDALE,24,0,24,24,100.0,0.0,100.0,100%,0%,100%
239,732c9f35-0c82-4128-acc3-2cf447298b1d,Major Taylor Trail & 124th St,15,41.66869635332246,-87.63711333274841,WEST PULLMAN,0,0,0,24,0.0,0.0,0.0,0%,0%,0%
240,759171ce-f355-4740-948d-e14bb8f7dc0e,Avenue O & 134th St,15,41.651799,-87.540696,HEGEWISCH,0,0,0,24,0.0,0.0,0.0,0%,0%,0%
241,792ceba0-564f-4a2c-bcb5-90da781ffeef,State St & 95th St,15,41.7218499,-87.6228544,ROSELAND,0,0,0,24,0.0,0.0,0.0,0%,0%,0%
242,7c56e4d5-92ee-4129-9a3a-d2ce89eab31d,Burnham Greenway & 112th St,15,41.69177385116831,-87.53043115139008,EAST SIDE,0,0,0,24,0.0,0.0,0.0,0%,0%,0%
243,7dc58bb9-24de-4544-9a12-c3975139370f,Doty Ave & 111th St,15,41.69501044938143,-87.59871482849121,PULLMAN,0,0,0,24,0.0,0.0,0.0,0%,0%,0%
244,7e435d2a-617e-4c3f-bed0-a8801c20f265,Stony Island Ave & 90th St,15,41.73139494330236,-87.58574366569519,CALUMET HEIGHTS,0,0,0,24,0.0,0.0,0.0,0%,0%,0%
245,8759a858-d7eb-4382-b38f-2223c3f9e25d,Big Marsh Park,14,41.68587705562333,-87.57382392883301,SOUTH DEERING,0,0,0,24,0.0,0.0,0.0,0%,0%,0%
246,87c01e57-8a00-430d-9eb3-2abe51e535dd,Vernon Ave & 107th St,15,41.70012137923888,-87.61225998401642,ROSELAND,0,0,0,24,0.0,0.0,0.0,0%,0%,0%
247,87d2a090-22cd-471b-b622-fef3923999dd,Loomis St & 89th St,15,41.73237975329554,-87.65806943178177,AUBURN GRESHAM,0,0,0,24,0.0,0.0,0.0,0%,0%,0%
248,8995498f-1209-4b06-9317-01cd695b3b61,Franklin St & Illinois St,11,41.89102331025185,-87.63547986745834,NEAR NORTH SIDE,5,1,6,24,20.833333333333332,4.166666666666667,25.0,15-29%,1-14%,15-29%
249,8a677aec-442b-47b8-aff7-50852e1d26c0,Kedzie Ave & 110th St,11,41.69239474587557,-87.70096063613892,MOUNT GREENWOOD,0,0,0,24,0.0,0.0,0.0,0%,0%,0%
250,8fd03909-317e-4b6c-b8e9-f4c28b4c90b1,Torrence Ave & 126th Pl,15,41.66631200825726,-87.55721569061278,HEGEWISCH,0,0,0,24,0.0,0.0,0.0,0%,0%,0%
251,90011328-f7bd-4b7b-8f95-8204a0b50f27,Wells St & Institute Pl,11,41.89737986072316,-87.63442039489746,NEAR NORTH SIDE,0,0,0,24,0.0,0.0,0.0,0%,0%,0%
252,94788869-1849-43f6-99e1-2eacbc3fab03,Morgan St & Lake St*,20,41.88549170626906,-87.65228927135468,NEAR WEST SIDE,7,0,7,24,29.166666666666668,0.0,29.166666666666668,15-29%,0%,15-29%
253,95185a0d-da45-406a-a892-6b37b0d29fa8,Greenwood Ave & 97th St,15,41.71870315475741,-87.59703576564789,PULLMAN,0,0,0,24,0.0,0.0,0.0,0%,0%,0%
254,97818a9b-0f86-44df-98e6-1bc16812e3d9,Lakefront Trail & Bryn Mawr Ave,19,41.98404411519213,-87.65228122472763,EDGEWATER,0,0,0,24,0.0,0.0,0.0,0%,0%,0%
255,98fe78dc-4efa-4b39-a47c-0d94abcdb221,Ewing Ave & Burnham Greenway,11,41.71274876109496,-87.53481388092041,EAST SIDE,24,0,24,24,100.0,0.0,100.0,100%,0%,100%
256,9e1fbaaa-e872-4505-ada6-5080e62bef77,Lincoln Park Conservatory,31,41.92393131136619,-87.63582453131676,LINCOLN PARK,0,0,0,24,0.0,0.0,0.0,0%,0%,0%
257,9e5ce0b6-198f-48fa-9363-64ab5ec2b222,Chicago State University,23,41.71896342165455,-87.60829567909241,ROSELAND,0,0,0,24,0.0,0.0,0.0,0%,0%,0%
258,a065d29d-a081-47f4-8d0f-9a572f6085fe,Michigan Ave & 114th St,15,41.68701479467118,-87.62105226516724,ROSELAND,0,0,0,24,0.0,0.0,0.0,0%,0%,0%
259,a21de1a5-f5bc-4b50-8a13-aa28b7dcfa95,Halsted St & 96th St,15,41.71971218361882,-87.6430195569992,WASHINGTON HEIGHTS,0,0,0,24,0.0,0.0,0.0,0%,0%,0%
260,a2aa2a53-3439-459b-9345-c21435e99a72,Elizabeth St & 92nd St,15,41.72679896370119,-87.65429019927979,WASHINGTON HEIGHTS,0,0,0,24,0.0,0.0,0.0,0%,0%,0%
261,a3a37378-a135-11e9-9cda-0a87ae2ba916,Shedd Aquarium,55,41.86722595682,-87.6153553902,NEAR SOUTH SIDE,7,0,7,24,29.166666666666668,0.0,29.166666666666668,15-29%,0%,15-29%
262,a3a378ca-a135-11e9-9cda-0a87ae2ba916,Burnham Harbor,23,41.85741178707404,-87.61379152536392,NEAR SOUTH SIDE,0,0,0,24,0.0,0.0,0.0,0%,0%,0%
263,a3a37e26-a135-11e9-9cda-0a87ae2ba916,State St & Harrison St,23,41.874053,-87.627716,LOOP,0,0,0,24,0.0,0.0,0.0,0%,0%,0%
264,a3a38363-a135-11e9-9cda-0a87ae2ba916,Dusable Harbor,39,41.886976,-87.612813,LOOP,0,0,0,24,0.0,0.0,0.0,0%,0%,0%
265,a3a3888b-a135-11e9-9cda-0a87ae2ba916,Field Blvd & South Water St,19,41.88634906269,-87.6175165471,LOOP,2,0,2,24,8.333333333333334,0.0,8.333333333333334,1-14%,0%,1-14%
266,a3a39301-a135-11e9-9cda-0a87ae2ba916,Leavitt St & Archer Ave,15,41.82879201994,-87.6806044594,MCKINLEY PARK,0,0,0,24,0.0,0.0,0.0,0%,0%,0%
267,a3a3983e-a135-11e9-9cda-0a87ae2ba916,Jeffery Blvd & 71st St,11,41.76663823695,-87.5764501141,SOUTH SHORE,0,0,0,24,0.0,0.0,0.0,0%,0%,0%
268,a3a39d55-a135-11e9-9cda-0a87ae2ba916,South Shore Dr & 71st St,15,41.7664094567,-87.5656875719,SOUTH SHORE,0,0,0,24,0.0,0.0,0.0,0%,0%,0%
269,a3a3a282-a135-11e9-9cda-0a87ae2ba916,Wilton Ave & Diversey Pkwy,35,41.932418,-87.652705,LINCOLN PARK,0,0,0,24,0.0,0.0,0.0,0%,0%,0%
270,a3a3a7b4-a135-11e9-9cda-0a87ae2ba916,Morgan St & 18th St,15,41.858086,-87.651073,LOWER WEST SIDE,0,7,7,24,0.0,29.166666666666668,29.166666666666668,0%,15-29%,15-29%
271,a3a3ace6-a135-11e9-9cda-0a87ae2ba916,Racine Ave & 18th St,15,41.858166,-87.656495,LOWER WEST SIDE,0,0,0,24,0.0,0.0,0.0,0%,0%,0%
272,a3a3b202-a135-11e9-9cda-0a87ae2ba916,Paulina Ave & North Ave,15,41.90985465216731,-87.66993016004562,WEST TOWN,0,6,6,24,0.0,25.0,25.0,0%,15-29%,15-29%
273,a3a3b731-a135-11e9-9cda-0a87ae2ba916,Honore St & Division St,23,41.903119,-87.673935,WEST TOWN,0,1,1,24,0.0,4.166666666666667,4.166666666666667,0%,1-14%,1-14%
274,a3a3bc53-a135-11e9-9cda-0a87ae2ba916,Wacker Dr & Washington St,15,41.88314336439022,-87.63724207878113,LOOP,11,0,11,24,45.833333333333336,0.0,45.833333333333336,30-99%,0%,30-99%
275,a3a3c174-a135-11e9-9cda-0a87ae2ba916,Throop St & Taylor St,15,41.868968,-87.659141,NEAR WEST SIDE,6,0,6,24,25.0,0.0,25.0,15-29%,0%,15-29%
276,a3a3c696-a135-11e9-9cda-0a87ae2ba916,Sheffield Ave & Kingsbury St,15,41.910522,-87.653106,NEAR NORTH SIDE,0,0,0,24,0.0,0.0,0.0,0%,0%,0%
277,a3a3cbac-a135-11e9-9cda-0a87ae2ba916,Aberdeen St & Jackson Blvd,23,41.87772613,-87.65478743,NEAR WEST SIDE,0,0,0,24,0.0,0.0,0.0,0%,0%,0%
278,a3a3d1b8-a135-11e9-9cda-0a87ae2ba916,May St & Taylor St,15,41.8694821,-87.6554864,NEAR WEST SIDE,0,5,5,24,0.0,20.833333333333332,20.833333333333332,0%,15-29%,15-29%
279,a3a3d6f0-a135-11e9-9cda-0a87ae2ba916,Orleans St & Elm St,15,41.902924,-87.637715,NEAR NORTH SIDE,0,0,0,24,0.0,0.0,0.0,0%,0%,0%
280,a3a3dc37-a135-11e9-9cda-0a87ae2ba916,Fairbanks Ct & Grand Ave,15,41.89184737210993,-87.62058019638062,NEAR NORTH SIDE,9,0,9,24,37.5,0.0,37.5,30-99%,0%,30-99%
281,a3a3e158-a135-11e9-9cda-0a87ae2ba916,Michigan Ave & Pearson St,23,41.89766,-87.62351,NEAR NORTH SIDE,0,0,0,24,0.0,0.0,0.0,0%,0%,0%
282,a3a3e67b-a135-11e9-9cda-0a87ae2ba916,New St & Illinois St,31,41.89084704062381,-87.61861681938171,NEAR NORTH SIDE,1,0,1,24,4.166666666666667,0.0,4.166666666666667,1-14%,0%,1-14%
283,a3a3eb9a-a135-11e9-9cda-0a87ae2ba916,Larrabee St & North Ave,19,41.91021,-87.6435,NEAR NORTH SIDE,0,1,1,24,0.0,4.166666666666667,4.166666666666667,0%,1-14%,1-14%
284,a3a3f0c6-a135-11e9-9cda-0a87ae2ba916,Larrabee St & Menomonee St,15,41.91468,-87.64332,LINCOLN PARK,0,0,0,24,0.0,0.0,0.0,0%,0%,0%
285,a3a3f5e9-a135-11e9-9cda-0a87ae2ba916,Noble St & Milwaukee Ave,15,41.9007,-87.662607,WEST TOWN,5,7,12,24,20.833333333333332,29.166666666666668,50.0,15-29%,15-29%,30-99%
286,a3a3fb5d-a135-11e9-9cda-0a87ae2ba916,Ashland Ave & Augusta Blvd,15,41.899643,-87.6677,WEST TOWN,4,0,4,24,16.666666666666668,0.0,16.666666666666668,15-29%,0%,15-29%
287,a3a40088-a135-11e9-9cda-0a87ae2ba916,Franklin St & Chicago Ave,23,41.896746973093805,-87.63566762208939,NEAR NORTH SIDE,7,0,7,24,29.166666666666668,0.0,29.166666666666668,15-29%,0%,15-29%
288,a3a405a1-a135-11e9-9cda-0a87ae2ba916,Racine Ave & Congress Pkwy,19,41.87464,-87.65703,NEAR WEST SIDE,0,0,0,24,0.0,0.0,0.0,0%,0%,0%
289,a3a40ad8-a135-11e9-9cda-0a87ae2ba916,State St & Van Buren St,27,41.877181,-87.627844,LOOP,0,0,0,24,0.0,0.0,0.0,0%,0%,0%
290,a3a41004-a135-11e9-9cda-0a87ae2ba916,Cannon Dr & Fullerton Ave,15,41.9267559875,-87.6344287848,LINCOLN PARK,0,0,0,24,0.0,0.0,0.0,0%,0%,0%
291,a3a41526-a135-11e9-9cda-0a87ae2ba916,Streeter Dr & Grand Ave,43,41.892278,-87.612043,NEAR NORTH SIDE,0,0,0,24,0.0,0.0,0.0,0%,0%,0%
292,a3a41af5-a135-11e9-9cda-0a87ae2ba916,Franklin St & Jackson Blvd,39,41.8777079559,-87.6353211408,LOOP,0,0,0,24,0.0,0.0,0.0,0%,0%,0%
293,a3a4203a-a135-11e9-9cda-0a87ae2ba916,Dearborn St & Adams St,19,41.8793563587,-87.6297910363,LOOP,9,1,10,24,37.5,4.166666666666667,41.666666666666664,30-99%,1-14%,30-99%
294,a3a42574-a135-11e9-9cda-0a87ae2ba916,Clark St & Lake St,27,41.88602082773,-87.6308760584,LOOP,9,0,9,24,37.5,0.0,37.5,30-99%,0%,30-99%
295,a3a42a93-a135-11e9-9cda-0a87ae2ba916,Wabash Ave & Adams St,23,41.87947235235,-87.6256886059,LOOP,2,6,8,24,8.333333333333334,25.0,33.333333333333336,1-14%,15-29%,30-99%
296,a3a42fa7-a135-11e9-9cda-0a87ae2ba916,LaSalle St & Adams St,15,41.87934437346,-87.6319852213,LOOP,13,0,13,24,54.166666666666664,0.0,54.166666666666664,30-99%,0%,30-99%
297,a3a434ce-a135-11e9-9cda-0a87ae2ba916,Federal St & Polk St,19,41.87207763285,-87.6295437729,LOOP,5,0,5,24,20.833333333333332,0.0,20.833333333333332,15-29%,0%,15-29%
298,a3a43a25-a135-11e9-9cda-0a87ae2ba916,Wabash Ave & Cermak Rd,11,41.852619,-87.626488,NEAR SOUTH SIDE,7,0,7,24,29.166666666666668,0.0,29.166666666666668,15-29%,0%,15-29%
299,a3a43f48-a135-11e9-9cda-0a87ae2ba916,Michigan Ave & Washington St,43,41.8839840647265,-87.6246839761734,LOOP,2,0,2,24,8.333333333333334,0.0,8.333333333333334,1-14%,0%,1-14%
300,a3a44476-a135-11e9-9cda-0a87ae2ba916,State St & Randolph St,23,41.88462107257936,-87.62783423066139,LOOP,9,0,9,24,37.5,0.0,37.5,30-99%,0%,30-99%
301,a3a4499f-a135-11e9-9cda-0a87ae2ba916,Michigan Ave & Ida B Wells Dr,15,41.876243,-87.624426,LOOP,2,0,2,24,8.333333333333334,0.0,8.333333333333334,1-14%,0%,1-14%
302,a3a44ec7-a135-11e9-9cda-0a87ae2ba916,Wells St & Walton St,19,41.89993001,-87.63443007,NEAR NORTH SIDE,0,0,0,24,0.0,0.0,0.0,0%,0%,0%
303,a3a453fa-a135-11e9-9cda-0a87ae2ba916,State St & Kinzie St,31,41.88937546663168,-87.62707650661469,NEAR NORTH SIDE,5,0,5,24,20.833333333333332,0.0,20.833333333333332,15-29%,0%,15-29%
304,a3a4591a-a135-11e9-9cda-0a87ae2ba916,Larrabee St & Kingsbury St,43,41.897764,-87.642884,NEAR NORTH SIDE,1,0,1,24,4.166666666666667,0.0,4.166666666666667,1-14%,0%,1-14%
305,a3a45e3b-a135-11e9-9cda-0a87ae2ba916,Dearborn St & Monroe St,39,41.881319815,-87.6295209193,LOOP,10,0,10,24,41.666666666666664,0.0,41.666666666666664,30-99%,0%,30-99%
306,a3a46361-a135-11e9-9cda-0a87ae2ba916,Clark St & Ida B Wells Dr,35,41.8759326655,-87.6305845355,LOOP,0,0,0,24,0.0,0.0,0.0,0%,0%,0%
307,a3a46896-a135-11e9-9cda-0a87ae2ba916,Clark St & Randolph St,43,41.884576228,-87.63188991,LOOP,12,0,12,24,50.0,0.0,50.0,30-99%,0%,30-99%
308,a3a46e71-a135-11e9-9cda-0a87ae2ba916,Michigan Ave & Lake St,35,41.886022,-87.624398,LOOP,8,0,8,24,33.333333333333336,0.0,33.333333333333336,30-99%,0%,30-99%
309,a3a4739d-a135-11e9-9cda-0a87ae2ba916,Wells St & Huron St,27,41.894722,-87.634362,NEAR NORTH SIDE,7,0,7,24,29.166666666666668,0.0,29.166666666666668,15-29%,0%,15-29%
310,a3a478c9-a135-11e9-9cda-0a87ae2ba916,Ogden Ave & Chicago Ave,19,41.896362458,-87.6540612729,WEST TOWN,0,0,0,24,0.0,0.0,0.0,0%,0%,0%
311,a3a47dde-a135-11e9-9cda-0a87ae2ba916,Halsted St & Roosevelt Rd,23,41.867324,-87.648625,NEAR WEST SIDE,8,0,8,24,33.333333333333336,0.0,33.333333333333336,30-99%,0%,30-99%
312,a3a482fb-a135-11e9-9cda-0a87ae2ba916,Desplaines St & Kinzie St,27,41.888716036,-87.6444478533,WEST TOWN,0,2,2,24,0.0,8.333333333333334,8.333333333333334,0%,1-14%,1-14%
313,a3a4881d-a135-11e9-9cda-0a87ae2ba916,Clinton St & Roosevelt Rd,15,41.8671177825,-87.6410879593,NEAR WEST SIDE,0,1,1,24,0.0,4.166666666666667,4.166666666666667,0%,1-14%,1-14%
314,a3a48d5c-a135-11e9-9cda-0a87ae2ba916,Elston Ave & Cortland St,23,41.91643342912655,-87.66674637794495,LOGAN SQUARE,0,0,0,24,0.0,0.0,0.0,0%,0%,0%
315,a3a49288-a135-11e9-9cda-0a87ae2ba916,Wabash Ave & Roosevelt Rd,23,41.867227,-87.625961,NEAR SOUTH SIDE,0,0,0,24,0.0,0.0,0.0,0%,0%,0%
316,a3a497b6-a135-11e9-9cda-0a87ae2ba916,Dayton St & North Ave,19,41.9105780349,-87.6494219288,NEAR NORTH SIDE,0,0,0,24,0.0,0.0,0.0,0%,0%,0%
317,a3a49cd7-a135-11e9-9cda-0a87ae2ba916,Wood St & Milwaukee Ave,19,41.907655,-87.672552,WEST TOWN,0,0,0,24,0.0,0.0,0.0,0%,0%,0%
318,a3a4a202-a135-11e9-9cda-0a87ae2ba916,McCormick Place,27,41.8513751729,-87.6188346489,NEAR SOUTH SIDE,0,0,0,24,0.0,0.0,0.0,0%,0%,0%
319,a3a4a71e-a135-11e9-9cda-0a87ae2ba916,Clinton St & Lake St,23,41.885637,-87.641823,NEAR WEST SIDE,6,0,6,24,25.0,0.0,25.0,15-29%,0%,15-29%
320,a3a4ac3f-a135-11e9-9cda-0a87ae2ba916,Sheffield Ave & Fullerton Ave,27,41.9256018819,-87.6537080423,LINCOLN PARK,0,1,1,24,0.0,4.166666666666667,4.166666666666667,0%,1-14%,1-14%
321,a3a4b164-a135-11e9-9cda-0a87ae2ba916,Clinton St & Tilden St,23,41.875885,-87.640795,NEAR WEST SIDE,0,0,0,24,0.0,0.0,0.0,0%,0%,0%
322,a3a4b693-a135-11e9-9cda-0a87ae2ba916,Damen Ave & Pierce Ave,23,41.9093960065,-87.6776919292,WEST TOWN,0,4,4,24,0.0,16.666666666666668,16.666666666666668,0%,15-29%,15-29%
323,a3a4bbba-a135-11e9-9cda-0a87ae2ba916,Sangamon St & Lake St,23,41.88577925240433,-87.65102460980414,NEAR WEST SIDE,8,0,8,24,33.333333333333336,0.0,33.333333333333336,30-99%,0%,30-99%
324,a3a4c0df-a135-11e9-9cda-0a87ae2ba916,Wabash Ave & 16th St,39,41.860384,-87.625813,NEAR SOUTH SIDE,0,0,0,24,0.0,0.0,0.0,0%,0%,0%
325,a3a4c618-a135-11e9-9cda-0a87ae2ba916,Jefferson St & Monroe St,19,41.880329633634624,-87.64274597167967,NEAR WEST SIDE,10,0,10,24,41.666666666666664,0.0,41.666666666666664,30-99%,0%,30-99%
326,a3a4cb42-a135-11e9-9cda-0a87ae2ba916,Kingsbury St & Erie St,23,41.89380805624359,-87.64169722795485,NEAR NORTH SIDE,5,1,6,24,20.833333333333332,4.166666666666667,25.0,15-29%,1-14%,15-29%
327,a3a4d069-a135-11e9-9cda-0a87ae2ba916,Canal St & Jackson Blvd,55,41.877245,-87.639366,NEAR WEST SIDE,0,0,0,24,0.0,0.0,0.0,0%,0%,0%
328,a3a4d588-a135-11e9-9cda-0a87ae2ba916,DuSable Lake Shore Dr & Monroe St,39,41.880958,-87.616743,LOOP,0,1,1,24,0.0,4.166666666666667,4.166666666666667,0%,1-14%,1-14%
329,a3a4daa1-a135-11e9-9cda-0a87ae2ba916,Clinton St & Madison St,27,41.882751965685614,-87.64119029045105,NEAR WEST SIDE,1,0,1,24,4.166666666666667,0.0,4.166666666666667,1-14%,0%,1-14%
330,a3a4e4e3-a135-11e9-9cda-0a87ae2ba916,Aberdeen St & Monroe St,19,41.880419,-87.655519,NEAR WEST SIDE,3,0,3,24,12.5,0.0,12.5,1-14%,0%,1-14%
331,a3a4ea00-a135-11e9-9cda-0a87ae2ba916,Daley Center Plaza,39,41.884241,-87.629634,LOOP,11,0,11,24,45.833333333333336,0.0,45.833333333333336,30-99%,0%,30-99%
332,a3a4ef26-a135-11e9-9cda-0a87ae2ba916,Milwaukee Ave & Grand Ave,19,41.891578,-87.648384,WEST TOWN,0,4,4,24,0.0,16.666666666666668,16.666666666666668,0%,15-29%,15-29%
333,a3a4f46b-a135-11e9-9cda-0a87ae2ba916,Michigan Ave & Oak St,23,41.90096039,-87.62377664,NEAR NORTH SIDE,0,0,0,24,0.0,0.0,0.0,0%,0%,0%
334,a3a4f993-a135-11e9-9cda-0a87ae2ba916,Eckhart Park,19,41.89637337,-87.66098386,WEST TOWN,0,6,6,24,0.0,25.0,25.0,0%,15-29%,15-29%
335,a3a4fec3-a135-11e9-9cda-0a87ae2ba916,Racine Ave & Fullerton Ave,19,41.925566,-87.658416,LINCOLN PARK,0,6,6,24,0.0,25.0,25.0,0%,15-29%,15-29%
336,a3a503e5-a135-11e9-9cda-0a87ae2ba916,Racine Ave & Randolph St,19,41.884069,-87.656853,NEAR WEST SIDE,0,0,0,24,0.0,0.0,0.0,0%,0%,0%
337,a3a50991-a135-11e9-9cda-0a87ae2ba916,Financial Pl & Ida B Wells Dr,31,41.8750236280333,-87.6330940425396,LOOP,1,0,1,24,4.166666666666667,0.0,4.166666666666667,1-14%,0%,1-14%
338,a3a50ec8-a135-11e9-9cda-0a87ae2ba916,Millennium Park,47,41.8810317,-87.62408432,LOOP,6,1,7,24,25.0,4.166666666666667,29.166666666666668,15-29%,1-14%,15-29%
339,a3a513e9-a135-11e9-9cda-0a87ae2ba916,Clinton St & Washington Blvd,31,41.88338,-87.64117,NEAR WEST SIDE,6,0,6,24,25.0,0.0,25.0,15-29%,0%,15-29%
340,a3a51934-a135-11e9-9cda-0a87ae2ba916,Carpenter St & Huron St,19,41.894556,-87.653449,WEST TOWN,0,0,0,24,0.0,0.0,0.0,0%,0%,0%
341,a3a51e6e-a135-11e9-9cda-0a87ae2ba916,Sheffield Ave & Willow St,15,41.913688,-87.652855,LINCOLN PARK,0,0,0,24,0.0,0.0,0.0,0%,0%,0%
342,a3a523a6-a135-11e9-9cda-0a87ae2ba916,Clark St & Armitage Ave,31,41.918306,-87.636282,LINCOLN PARK,0,0,0,24,0.0,0.0,0.0,0%,0%,0%
343,a3a528d0-a135-11e9-9cda-0a87ae2ba916,Stony Island Ave & 64th St,11,41.778881,-87.586647,WOODLAWN,0,0,0,24,0.0,0.0,0.0,0%,0%,0%
344,a3a52df5-a135-11e9-9cda-0a87ae2ba916,Desplaines St & Randolph St,23,41.883703,-87.644238,NEAR WEST SIDE,8,0,8,24,33.333333333333336,0.0,33.333333333333336,30-99%,0%,30-99%
345,a3a53324-a135-11e9-9cda-0a87ae2ba916,Field Museum,55,41.865312,-87.617867,NEAR SOUTH SIDE,0,0,0,24,0.0,0.0,0.0,0%,0%,0%
346,a3a53843-a135-11e9-9cda-0a87ae2ba916,LaSalle St & Washington St,15,41.882664,-87.63253,LOOP,0,1,1,24,0.0,4.166666666666667,4.166666666666667,0%,1-14%,1-14%
347,a3a53d70-a135-11e9-9cda-0a87ae2ba916,McClurg Ct & Ohio St,19,41.892592119709725,-87.61728912591934,NEAR NORTH SIDE,1,0,1,24,4.166666666666667,0.0,4.166666666666667,1-14%,0%,1-14%
348,a3a5428e-a135-11e9-9cda-0a87ae2ba916,Orleans St & Merchandise Mart Plaza,35,41.888243,-87.63639,NEAR NORTH SIDE,5,0,5,24,20.833333333333332,0.0,20.833333333333332,15-29%,0%,15-29%
349,a3a547b8-a135-11e9-9cda-0a87ae2ba916,63rd St Beach,15,41.78091096424803,-87.57632374763489,WOODLAWN,0,0,0,24,0.0,0.0,0.0,0%,0%,0%
350,a3a54cdb-a135-11e9-9cda-0a87ae2ba916,Stony Island Ave & 67th St,11,41.77345849948,-87.5853397391,WOODLAWN,0,0,0,24,0.0,0.0,0.0,0%,0%,0%
351,a3a555e8-a135-11e9-9cda-0a87ae2ba916,Clinton St & Polk St,15,41.87146651779,-87.6409491327,NEAR WEST SIDE,0,0,0,24,0.0,0.0,0.0,0%,0%,0%
352,a3a55b3e-a135-11e9-9cda-0a87ae2ba916,State St & Pearson St,27,41.897448,-87.628722,NEAR NORTH SIDE,9,0,9,24,37.5,0.0,37.5,30-99%,0%,30-99%
353,a3a56075-a135-11e9-9cda-0a87ae2ba916,Desplaines St & Jackson Blvd,27,41.87811890091227,-87.64394760131836,NEAR WEST SIDE,0,0,0,24,0.0,0.0,0.0,0%,0%,0%
354,a3a565b1-a135-11e9-9cda-0a87ae2ba916,Halsted St & Polk St,19,41.87184,-87.64664,NEAR WEST SIDE,12,4,16,24,50.0,16.666666666666668,66.66666666666667,30-99%,15-29%,30-99%
355,a3a56ae5-a135-11e9-9cda-0a87ae2ba916,900 W Harrison St,19,41.874754,-87.649807,NEAR WEST SIDE,4,2,6,24,16.666666666666668,8.333333333333334,25.0,15-29%,1-14%,15-29%
356,a3a5700b-a135-11e9-9cda-0a87ae2ba916,Dearborn St & Erie St,27,41.893992,-87.629318,NEAR NORTH SIDE,4,0,4,24,16.666666666666668,0.0,16.666666666666668,15-29%,0%,15-29%
357,a3a57527-a135-11e9-9cda-0a87ae2ba916,Sedgwick St & Huron St,27,41.894666,-87.638437,NEAR NORTH SIDE,0,0,0,24,0.0,0.0,0.0,0%,0%,0%
358,a3a57a52-a135-11e9-9cda-0a87ae2ba916,Green St & Washington Blvd,11,41.88318130597391,-87.64872461557388,NEAR WEST SIDE,17,0,17,24,70.83333333333333,0.0,70.83333333333333,30-99%,0%,30-99%
359,a3a57f6b-a135-11e9-9cda-0a87ae2ba916,Sheridan Rd & Argyle St,15,41.97328682025979,-87.65475958585739,UPTOWN,1,0,1,24,4.166666666666667,0.0,4.166666666666667,1-14%,0%,1-14%
360,a3a58495-a135-11e9-9cda-0a87ae2ba916,Sheffield Ave & Waveland Ave,27,41.949399,-87.654529,LAKE VIEW,3,0,3,24,12.5,0.0,12.5,1-14%,0%,1-14%
361,a3a589b9-a135-11e9-9cda-0a87ae2ba916,Sheffield Ave & Wellington Ave,22,41.9362534831413,-87.65266209840775,LAKE VIEW,0,4,4,24,0.0,16.666666666666668,16.666666666666668,0%,15-29%,15-29%
362,a3a58ee0-a135-11e9-9cda-0a87ae2ba916,Western Ave & Winnebago Ave,15,41.91552,-87.687022,LOGAN SQUARE,9,0,9,24,37.5,0.0,37.5,30-99%,0%,30-99%
363,a3a593fc-a135-11e9-9cda-0a87ae2ba916,Wilton Ave & Belmont Ave,27,41.940231918108594,-87.65294373035431,LAKE VIEW,0,0,0,24,0.0,0.0,0.0,0%,0%,0%
364,a3a59915-a135-11e9-9cda-0a87ae2ba916,Sedgwick St & North Ave,19,41.911386,-87.638677,LINCOLN PARK,0,0,0,24,0.0,0.0,0.0,0%,0%,0%
365,a3a59ec3-a135-11e9-9cda-0a87ae2ba916,Ashland Ave & Lake St,19,41.88592,-87.66717,NEAR WEST SIDE,0,0,0,24,0.0,0.0,0.0,0%,0%,0%
366,a3a5a48b-a135-11e9-9cda-0a87ae2ba916,Wentworth Ave & Cermak Rd,19,41.85308455741279,-87.63193130493164,ARMOUR SQUARE,8,0,8,24,33.333333333333336,0.0,33.333333333333336,30-99%,0%,30-99%
367,a3a5a9d0-a135-11e9-9cda-0a87ae2ba916,Blackstone Ave & Hyde Park Blvd,19,41.802562,-87.590368,KENWOOD,0,0,0,24,0.0,0.0,0.0,0%,0%,0%
368,a3a5af44-a135-11e9-9cda-0a87ae2ba916,Ogden Ave & Congress Pkwy,15,41.87501,-87.67328,NEAR WEST SIDE,0,0,0,24,0.0,0.0,0.0,0%,0%,0%
369,a3a5b496-a135-11e9-9cda-0a87ae2ba916,California Ave & Milwaukee Ave,15,41.922695,-87.697153,LOGAN SQUARE,0,5,5,24,0.0,20.833333333333332,20.833333333333332,0%,15-29%,15-29%
370,a3a5b9d3-a135-11e9-9cda-0a87ae2ba916,Damen Ave & Cullerton St,15,41.854966518753926,-87.67569959163664,LOWER WEST SIDE,15,16,24,24,62.5,66.66666666666667,100.0,30-99%,30-99%,100%
371,a3a5bf01-a135-11e9-9cda-0a87ae2ba916,Rush St & Hubbard St,23,41.890173,-87.626185,NEAR NORTH SIDE,0,0,0,24,0.0,0.0,0.0,0%,0%,0%
372,a3a5c440-a135-11e9-9cda-0a87ae2ba916,Clark St & North Ave,15,41.911974,-87.631942,LINCOLN PARK,5,0,5,24,20.833333333333332,0.0,20.833333333333332,15-29%,0%,15-29%
373,a3a5c96f-a135-11e9-9cda-0a87ae2ba916,Lincoln Ave & Fullerton Ave,15,41.924161029067626,-87.64638036489487,LINCOLN PARK,4,2,6,24,16.666666666666668,8.333333333333334,25.0,15-29%,1-14%,15-29%
374,a3a5ce97-a135-11e9-9cda-0a87ae2ba916,Damen Ave & Chicago Ave,19,41.895769,-87.67722,WEST TOWN,3,6,9,24,12.5,25.0,37.5,1-14%,15-29%,30-99%
375,a3a5d3bb-a135-11e9-9cda-0a87ae2ba916,Blue Island Ave & 18th St,15,41.857556,-87.661535,LOWER WEST SIDE,0,0,0,24,0.0,0.0,0.0,0%,0%,0%
376,a3a5d8db-a135-11e9-9cda-0a87ae2ba916,Damen Ave & Division St,19,41.903266,-87.678435,WEST TOWN,3,0,3,24,12.5,0.0,12.5,1-14%,0%,1-14%
377,a3a5de24-a135-11e9-9cda-0a87ae2ba916,Lincoln Ave & Melrose St,15,41.9406,-87.669435,LAKE VIEW,11,0,11,24,45.833333333333336,0.0,45.833333333333336,30-99%,0%,30-99%
378,a3a5e353-a135-11e9-9cda-0a87ae2ba916,Wentworth Ave & 24th St,15,41.85008369347577,-87.6321405172348,ARMOUR SQUARE,2,0,2,24,8.333333333333334,0.0,8.333333333333334,1-14%,0%,1-14%
379,a3a5eb69-a135-11e9-9cda-0a87ae2ba916,Kingsbury St & Kinzie St,31,41.88917683258,-87.6385057718,NEAR NORTH SIDE,11,0,11,24,45.833333333333336,0.0,45.833333333333336,30-99%,0%,30-99%
380,a3a5f0b8-a135-11e9-9cda-0a87ae2ba916,Peoria St & Jackson Blvd,19,41.8776415962753,-87.64961779117584,NEAR WEST SIDE,1,3,4,24,4.166666666666667,12.5,16.666666666666668,1-14%,1-14%,15-29%
381,a3a5f5e6-a135-11e9-9cda-0a87ae2ba916,Halsted St & 21st St,11,41.85377981072743,-87.6466029882431,LOWER WEST SIDE,0,0,0,24,0.0,0.0,0.0,0%,0%,0%
382,a3a5fb0d-a135-11e9-9cda-0a87ae2ba916,Racine Ave & 13th St,15,41.865054,-87.656959,NEAR WEST SIDE,0,0,0,24,0.0,0.0,0.0,0%,0%,0%
383,a3a6002c-a135-11e9-9cda-0a87ae2ba916,Morgan Ave & 14th Pl,15,41.862378,-87.651062,NEAR WEST SIDE,4,7,11,24,16.666666666666668,29.166666666666668,45.833333333333336,15-29%,15-29%,30-99%
384,a3a6054c-a135-11e9-9cda-0a87ae2ba916,Clybourn Ave & Division St,15,41.904613,-87.640552,NEAR NORTH SIDE,0,0,0,24,0.0,0.0,0.0,0%,0%,0%
385,a3a60a65-a135-11e9-9cda-0a87ae2ba916,Dearborn Pkwy & Delaware Pl,19,41.898969,-87.629912,NEAR NORTH SIDE,0,0,0,24,0.0,0.0,0.0,0%,0%,0%
386,a3a60f7e-a135-11e9-9cda-0a87ae2ba916,Clark St & Lincoln Ave,23,41.915689,-87.6346,LINCOLN PARK,4,0,4,24,16.666666666666668,0.0,16.666666666666668,15-29%,0%,15-29%
387,a3a614ad-a135-11e9-9cda-0a87ae2ba916,McClurg Ct & Erie St,31,41.894503,-87.617854,NEAR NORTH SIDE,4,0,4,24,16.666666666666668,0.0,16.666666666666668,15-29%,0%,15-29%
388,a3a61a0b-a135-11e9-9cda-0a87ae2ba916,Sedgwick St & Webster Ave,15,41.922167,-87.638888,LINCOLN PARK,0,0,0,24,0.0,0.0,0.0,0%,0%,0%
389,a3a62025-a135-11e9-9cda-0a87ae2ba916,Larrabee St & Webster Ave,19,41.921822,-87.64414,LINCOLN PARK,1,0,1,24,4.166666666666667,0.0,4.166666666666667,1-14%,0%,1-14%
390,a3a62566-a135-11e9-9cda-0a87ae2ba916,Mies van der Rohe Way & Chestnut St,19,41.8985866514,-87.6219152258,NEAR NORTH SIDE,5,0,5,24,20.833333333333332,0.0,20.833333333333332,15-29%,0%,15-29%
391,a3a62aad-a135-11e9-9cda-0a87ae2ba916,Loomis St & Jackson Blvd,19,41.877945,-87.662007,NEAR WEST SIDE,0,0,0,24,0.0,0.0,0.0,0%,0%,0%
392,a3a62fc9-a135-11e9-9cda-0a87ae2ba916,Indiana Ave & 26th St,15,41.845687,-87.622481,NEAR SOUTH SIDE,0,0,0,24,0.0,0.0,0.0,0%,0%,0%
393,a3a634dd-a135-11e9-9cda-0a87ae2ba916,State St & 33rd St,15,41.834734,-87.625813,DOUGLAS,4,3,7,24,16.666666666666668,12.5,29.166666666666668,15-29%,1-14%,15-29%
394,a3a639f5-a135-11e9-9cda-0a87ae2ba916,Calumet Ave & 33rd St,11,41.8349,-87.61793,DOUGLAS,11,3,14,24,45.833333333333336,12.5,58.333333333333336,30-99%,1-14%,30-99%
395,a3a640d1-a135-11e9-9cda-0a87ae2ba916,Fort Dearborn Dr & 31st St,27,41.838556,-87.608218,DOUGLAS,0,0,0,24,0.0,0.0,0.0,0%,0%,0%
396,a3a64639-a135-11e9-9cda-0a87ae2ba916,Lincoln Ave & Diversey Pkwy,15,41.932225,-87.658617,LINCOLN PARK,0,2,2,24,0.0,8.333333333333334,8.333333333333334,0%,1-14%,1-14%
397,a3a6c38e-a135-11e9-9cda-0a87ae2ba916,Southport Ave & Wellington Ave,19,41.93577461766458,-87.66360014677048,LAKE VIEW,0,0,0,24,0.0,0.0,0.0,0%,0%,0%
398,a3a6c910-a135-11e9-9cda-0a87ae2ba916,Southport Ave & Belmont Ave,15,41.93947775040509,-87.6637476682663,LAKE VIEW,6,0,6,24,25.0,0.0,25.0,15-29%,0%,15-29%
399,a3a6ce53-a135-11e9-9cda-0a87ae2ba916,Clark St & Wellington Ave,15,41.9364968219,-87.6475386582,LAKE VIEW,0,3,3,24,0.0,12.5,12.5,0%,1-14%,1-14%
400,a3a6d371-a135-11e9-9cda-0a87ae2ba916,DuSable Lake Shore Dr & Wellington Ave,15,41.9366884494997,-87.63682901859283,LAKE VIEW,0,6,6,24,0.0,25.0,25.0,0%,15-29%,15-29%
401,a3a6d884-a135-11e9-9cda-0a87ae2ba916,Milwaukee Ave & Wabansia Ave,15,41.912616,-87.681391,WEST TOWN,0,3,3,24,0.0,12.5,12.5,0%,1-14%,1-14%
402,a3a6de38-a135-11e9-9cda-0a87ae2ba916,Claremont Ave & Hirsch St,11,41.907781,-87.685854,WEST TOWN,3,0,3,24,12.5,0.0,12.5,1-14%,0%,1-14%
403,a3a6e359-a135-11e9-9cda-0a87ae2ba916,Campbell Ave & North Ave,15,41.910535,-87.689556,WEST TOWN,0,0,0,24,0.0,0.0,0.0,0%,0%,0%
404,a3a6e866-a135-11e9-9cda-0a87ae2ba916,Rush St & Superior St,23,41.89576474564,-87.6259080327,NEAR NORTH SIDE,10,0,10,24,41.666666666666664,0.0,41.666666666666664,30-99%,0%,30-99%
405,a3a6ed98-a135-11e9-9cda-0a87ae2ba916,Damen Ave & Wellington Ave,15,41.93588,-87.67842,NORTH CENTER,0,9,9,24,0.0,37.5,37.5,0%,30-99%,30-99%
406,a3a6f2a2-a135-11e9-9cda-0a87ae2ba916,Damen Ave & Clybourn Ave,15,41.931931,-87.677856,LINCOLN PARK,0,1,1,24,0.0,4.166666666666667,4.166666666666667,0%,1-14%,1-14%
407,a3a6f7a5-a135-11e9-9cda-0a87ae2ba916,Franklin St & Lake St,27,41.885837,-87.6355,LOOP,7,0,7,24,29.166666666666668,0.0,29.166666666666668,15-29%,0%,15-29%
408,a3a6fcac-a135-11e9-9cda-0a87ae2ba916,Clark St & Grace St,23,41.95078,-87.659172,LAKE VIEW,0,0,0,24,0.0,0.0,0.0,0%,0%,0%
409,a3a701b8-a135-11e9-9cda-0a87ae2ba916,Ashland Ave & Wrightwood Ave,15,41.92883,-87.668507,LINCOLN PARK,0,0,0,24,0.0,0.0,0.0,0%,0%,0%
410,a3a70bbd-a135-11e9-9cda-0a87ae2ba916,Michigan Ave & 14th St,19,41.864059,-87.623727,NEAR SOUTH SIDE,3,6,9,24,12.5,25.0,37.5,1-14%,15-29%,30-99%
411,a3a710c5-a135-11e9-9cda-0a87ae2ba916,Canal St & Harrison St,15,41.874255,-87.639573,NEAR WEST SIDE,0,0,0,24,0.0,0.0,0.0,0%,0%,0%
412,a3a715ce-a135-11e9-9cda-0a87ae2ba916,Clinton St & 18th St,15,41.85795,-87.640826,LOWER WEST SIDE,6,13,19,24,25.0,54.166666666666664,79.16666666666667,15-29%,30-99%,30-99%
413,a3a71b0a-a135-11e9-9cda-0a87ae2ba916,May St & Cullerton St,11,41.855136,-87.654127,LOWER WEST SIDE,3,0,3,24,12.5,0.0,12.5,1-14%,0%,1-14%
414,a3a72012-a135-11e9-9cda-0a87ae2ba916,Rush St & Cedar St,11,41.90230870122,-87.627690528,NEAR NORTH SIDE,0,7,7,24,0.0,29.166666666666668,29.166666666666668,0%,15-29%,15-29%
415,a3a7258b-a135-11e9-9cda-0a87ae2ba916,Mies van der Rohe Way & Chicago Ave,15,41.896944626370825,-87.62175768613815,NEAR NORTH SIDE,2,0,2,24,8.333333333333334,0.0,8.333333333333334,1-14%,0%,1-14%
416,a3a72aad-a135-11e9-9cda-0a87ae2ba916,Canal St & Madison St,27,41.882409,-87.639767,NEAR WEST SIDE,5,0,5,24,20.833333333333332,0.0,20.833333333333332,15-29%,0%,15-29%
417,a3a72fc4-a135-11e9-9cda-0a87ae2ba916,Wells St & Polk St,19,41.87273154226308,-87.63351649045944,LOOP,3,0,3,24,12.5,0.0,12.5,1-14%,0%,1-14%
418,a3a734ce-a135-11e9-9cda-0a87ae2ba916,Clark St & Elm St,39,41.902973,-87.63128,NEAR NORTH SIDE,0,6,6,24,0.0,25.0,25.0,0%,15-29%,15-29%
419,a3a739e4-a135-11e9-9cda-0a87ae2ba916,Theater on the Lake,31,41.926277,-87.630834,LINCOLN PARK,0,0,0,24,0.0,0.0,0.0,0%,0%,0%
420,a3a73ef1-a135-11e9-9cda-0a87ae2ba916,State St & 19th St,15,41.856594,-87.627542,NEAR SOUTH SIDE,0,0,0,24,0.0,0.0,0.0,0%,0%,0%
421,a3a743ff-a135-11e9-9cda-0a87ae2ba916,MLK Jr Dr & Pershing Rd,15,41.8246,-87.61678,DOUGLAS,0,0,0,24,0.0,0.0,0.0,0%,0%,0%
422,a3a74947-a135-11e9-9cda-0a87ae2ba916,Ritchie Ct & Banks St,15,41.906866,-87.626217,NEAR NORTH SIDE,7,0,7,24,29.166666666666668,0.0,29.166666666666668,15-29%,0%,15-29%
423,a3a74e60-a135-11e9-9cda-0a87ae2ba916,LaSalle St & Illinois St,31,41.890762,-87.631697,NEAR NORTH SIDE,5,0,5,24,20.833333333333332,0.0,20.833333333333332,15-29%,0%,15-29%
424,a3a7537c-a135-11e9-9cda-0a87ae2ba916,Wells St & Elm St,23,41.903222,-87.634324,NEAR NORTH SIDE,0,0,0,24,0.0,0.0,0.0,0%,0%,0%
425,a3a75885-a135-11e9-9cda-0a87ae2ba916,Damen Ave & Thomas St (Augusta Blvd),23,41.901315,-87.677409,WEST TOWN,0,0,0,24,0.0,0.0,0.0,0%,0%,0%
426,a3a75d8a-a135-11e9-9cda-0a87ae2ba916,State St & 35th St,19,41.8310363140161,-87.62679755687714,DOUGLAS,3,1,4,24,12.5,4.166666666666667,16.666666666666668,1-14%,1-14%,15-29%
427,a3a762a1-a135-11e9-9cda-0a87ae2ba916,Stave St & Armitage Ave,11,41.917741,-87.691392,LOGAN SQUARE,0,0,0,24,0.0,0.0,0.0,0%,0%,0%
428,a3a767b1-a135-11e9-9cda-0a87ae2ba916,Ogden Ave & Race Ave,15,41.891795,-87.658751,WEST TOWN,0,7,7,24,0.0,29.166666666666668,29.166666666666668,0%,15-29%,15-29%
429,a3a76cb6-a135-11e9-9cda-0a87ae2ba916,Greenview Ave & Fullerton Ave,15,41.92533,-87.6658,LINCOLN PARK,0,6,6,24,0.0,25.0,25.0,0%,15-29%,15-29%
430,a3a771c2-a135-11e9-9cda-0a87ae2ba916,Southport Ave & Wrightwood Ave,15,41.928773,-87.663913,LINCOLN PARK,0,0,0,24,0.0,0.0,0.0,0%,0%,0%
431,a3a7775b-a135-11e9-9cda-0a87ae2ba916,Canal St & Monroe St,27,41.88169,-87.63953,NEAR WEST SIDE,9,0,9,24,37.5,0.0,37.5,30-99%,0%,30-99%
432,a3a77c8d-a135-11e9-9cda-0a87ae2ba916,Canal St & Adams St,43,41.879255,-87.639904,NEAR WEST SIDE,0,0,0,24,0.0,0.0,0.0,0%,0%,0%
433,a3a781a6-a135-11e9-9cda-0a87ae2ba916,State St & 29th St,11,41.841707,-87.626938,DOUGLAS,0,0,0,24,0.0,0.0,0.0,0%,0%,0%
434,a3a786ac-a135-11e9-9cda-0a87ae2ba916,Wabash Ave & Wacker Pl,19,41.886875,-87.62603,LOOP,7,0,7,24,29.166666666666668,0.0,29.166666666666668,15-29%,0%,15-29%
435,a3a78bc0-a135-11e9-9cda-0a87ae2ba916,Columbus Dr & Randolph St,55,41.884728,-87.619521,LOOP,7,0,7,24,29.166666666666668,0.0,29.166666666666668,15-29%,0%,15-29%
436,a3a790cc-a135-11e9-9cda-0a87ae2ba916,Cityfront Plaza Dr & Pioneer Ct,31,41.890573,-87.622072,NEAR NORTH SIDE,6,0,6,24,25.0,0.0,25.0,15-29%,0%,15-29%
437,a3a795d7-a135-11e9-9cda-0a87ae2ba916,Michigan Ave & Madison St,19,41.882134,-87.625125,LOOP,7,0,7,24,29.166666666666668,0.0,29.166666666666668,15-29%,0%,15-29%
438,a3a79adb-a135-11e9-9cda-0a87ae2ba916,Green St & Madison St,27,41.88185932803823,-87.64926373958588,NEAR WEST SIDE,1,1,2,24,4.166666666666667,4.166666666666667,8.333333333333334,1-14%,1-14%,1-14%
439,a3a79fdc-a135-11e9-9cda-0a87ae2ba916,Wabash Ave & Grand Ave,31,41.891466,-87.626761,NEAR NORTH SIDE,0,0,0,24,0.0,0.0,0.0,0%,0%,0%
440,a3a7a4fc-a135-11e9-9cda-0a87ae2ba916,MLK Jr Dr & 47th St,11,41.809851,-87.616279,GRAND BOULEVARD,0,0,0,24,0.0,0.0,0.0,0%,0%,0%
441,a3a7aa0e-a135-11e9-9cda-0a87ae2ba916,Indiana Ave & 40th St,11,41.82168,-87.6216,GRAND BOULEVARD,0,0,0,24,0.0,0.0,0.0,0%,0%,0%
442,a3a7af11-a135-11e9-9cda-0a87ae2ba916,Halsted St & 18th St,15,41.85750568031716,-87.64599144458771,LOWER WEST SIDE,0,0,0,24,0.0,0.0,0.0,0%,0%,0%
443,a3a7b41d-a135-11e9-9cda-0a87ae2ba916,Western Ave & 21st St,15,41.854109,-87.685838,LOWER WEST SIDE,0,0,0,24,0.0,0.0,0.0,0%,0%,0%
444,a3a7b936-a135-11e9-9cda-0a87ae2ba916,Prairie Ave & Garfield Blvd,11,41.794853,-87.618691,WASHINGTON PARK,1,0,1,24,4.166666666666667,0.0,4.166666666666667,1-14%,0%,1-14%
445,a3a7be40-a135-11e9-9cda-0a87ae2ba916,Paulina St & 18th St,15,41.857901,-87.668745,LOWER WEST SIDE,0,0,0,24,0.0,0.0,0.0,0%,0%,0%
446,a3a7c341-a135-11e9-9cda-0a87ae2ba916,Halsted St & Archer Ave,15,41.847203,-87.646795,BRIDGEPORT,0,0,0,24,0.0,0.0,0.0,0%,0%,0%
447,a3a7c852-a135-11e9-9cda-0a87ae2ba916,Emerald Ave & 28th St,15,41.84358,-87.645368,BRIDGEPORT,5,0,5,24,20.833333333333332,0.0,20.833333333333332,15-29%,0%,15-29%
448,a3a7cd56-a135-11e9-9cda-0a87ae2ba916,Laflin St & Cullerton St,15,41.85491457576575,-87.66355991363525,LOWER WEST SIDE,0,0,0,24,0.0,0.0,0.0,0%,0%,0%
449,a3a7d279-a135-11e9-9cda-0a87ae2ba916,Normal Ave & Archer Ave,11,41.849527,-87.640591,ARMOUR SQUARE,0,0,0,24,0.0,0.0,0.0,0%,0%,0%
450,a3a7d782-a135-11e9-9cda-0a87ae2ba916,Ashland Ave & Division St,27,41.90345,-87.667747,WEST TOWN,0,1,1,24,0.0,4.166666666666667,4.166666666666667,0%,1-14%,1-14%
451,a3a7dc8c-a135-11e9-9cda-0a87ae2ba916,St. Clair St & Erie St,19,41.89434513742426,-87.62279838323593,NEAR NORTH SIDE,8,0,8,24,33.333333333333336,0.0,33.333333333333336,30-99%,0%,30-99%
452,a3a7e19b-a135-11e9-9cda-0a87ae2ba916,Wells St & Hubbard St,31,41.889906,-87.634266,NEAR NORTH SIDE,1,0,1,24,4.166666666666667,0.0,4.166666666666667,1-14%,0%,1-14%
453,a3a7e69e-a135-11e9-9cda-0a87ae2ba916,Leavitt St & North Ave,11,41.910282,-87.682325,WEST TOWN,0,2,2,24,0.0,8.333333333333334,8.333333333333334,0%,1-14%,1-14%
454,a3a7eba7-a135-11e9-9cda-0a87ae2ba916,Damen Ave & Grand Ave,23,41.89239445296271,-87.67688512802124,WEST TOWN,2,0,2,24,8.333333333333334,0.0,8.333333333333334,1-14%,0%,1-14%
455,a3a7f0ba-a135-11e9-9cda-0a87ae2ba916,Damen Ave & Madison St,15,41.88137,-87.67493,NEAR WEST SIDE,14,4,18,24,58.333333333333336,16.666666666666668,75.0,30-99%,15-29%,30-99%
456,a3a7f5ea-a135-11e9-9cda-0a87ae2ba916,California Ave & Division St,19,41.903029,-87.697474,WEST TOWN,0,0,0,24,0.0,0.0,0.0,0%,0%,0%
457,a3a7faf7-a135-11e9-9cda-0a87ae2ba916,Elizabeth St & Fulton St,15,41.88671077318443,-87.65965729951859,NEAR WEST SIDE,7,3,10,24,29.166666666666668,12.5,41.666666666666664,15-29%,1-14%,30-99%
458,a3a80009-a135-11e9-9cda-0a87ae2ba916,Wells St & 19th St,11,41.856802,-87.633879,ARMOUR SQUARE,0,0,0,24,0.0,0.0,0.0,0%,0%,0%
459,a3a80512-a135-11e9-9cda-0a87ae2ba916,Damen Ave & Cortland St,19,41.915983,-87.677335,LOGAN SQUARE,1,1,2,24,4.166666666666667,4.166666666666667,8.333333333333334,1-14%,1-14%,1-14%
460,a3a80a1e-a135-11e9-9cda-0a87ae2ba916,Clark St & Drummond Pl,23,41.931248,-87.644336,LINCOLN PARK,0,0,0,24,0.0,0.0,0.0,0%,0%,0%
461,a3a80f32-a135-11e9-9cda-0a87ae2ba916,Milwaukee Ave & Rockwell St,19,41.92019556200566,-87.69265919923781,LOGAN SQUARE,0,0,0,24,0.0,0.0,0.0,0%,0%,0%
462,a3a817dc-a135-11e9-9cda-0a87ae2ba916,Clifton Ave & Armitage Ave,15,41.918216,-87.656936,LINCOLN PARK,0,19,19,24,0.0,79.16666666666667,79.16666666666667,0%,30-99%,30-99%
463,a3a81d33-a135-11e9-9cda-0a87ae2ba916,Halsted St & Willow St,19,41.913865,-87.648755,LINCOLN PARK,0,0,0,24,0.0,0.0,0.0,0%,0%,0%
464,a3a8224f-a135-11e9-9cda-0a87ae2ba916,Halsted St & Dickens Ave,23,41.919936,-87.64883,LINCOLN PARK,0,0,0,24,0.0,0.0,0.0,0%,0%,0%
465,a3a8275e-a135-11e9-9cda-0a87ae2ba916,Racine Ave & Belmont Ave,15,41.939743,-87.658865,LAKE VIEW,0,0,0,24,0.0,0.0,0.0,0%,0%,0%
466,a3a82c6c-a135-11e9-9cda-0a87ae2ba916,Southport Ave & Waveland Ave,23,41.94815,-87.66394,LAKE VIEW,0,7,7,24,0.0,29.166666666666668,29.166666666666668,0%,15-29%,15-29%
467,a3a83181-a135-11e9-9cda-0a87ae2ba916,Damen Ave & Melrose Ave,15,41.9406,-87.6785,NORTH CENTER,0,11,11,24,0.0,45.833333333333336,45.833333333333336,0%,30-99%,30-99%
468,a3a83698-a135-11e9-9cda-0a87ae2ba916,Southport Ave & Roscoe St,19,41.943739,-87.66402,LAKE VIEW,0,0,0,24,0.0,0.0,0.0,0%,0%,0%
469,a3a83ba1-a135-11e9-9cda-0a87ae2ba916,Wood St & Webster Ave,19,41.92105672992757,-87.67279744148254,LOGAN SQUARE,2,0,2,24,8.333333333333334,0.0,8.333333333333334,1-14%,0%,1-14%
470,a3a840a6-a135-11e9-9cda-0a87ae2ba916,Sheridan Rd & Montrose Ave,23,41.96167,-87.65464,UPTOWN,0,3,3,24,0.0,12.5,12.5,0%,1-14%,1-14%
471,a3a845b0-a135-11e9-9cda-0a87ae2ba916,Pine Grove Ave & Waveland Ave,23,41.94947274088333,-87.64645278453827,LAKE VIEW,3,0,3,24,12.5,0.0,12.5,1-14%,0%,1-14%
472,a3a84ab4-a135-11e9-9cda-0a87ae2ba916,Sangamon St & Washington Blvd,15,41.883165,-87.6511,NEAR WEST SIDE,0,0,0,24,0.0,0.0,0.0,0%,0%,0%
473,a3a84fb8-a135-11e9-9cda-0a87ae2ba916,Clark St & Montrose Ave,19,41.961588,-87.666036,LAKE VIEW,0,6,6,24,0.0,25.0,25.0,0%,15-29%,15-29%
474,a3a854bf-a135-11e9-9cda-0a87ae2ba916,Sedgwick St & Schiller St,15,41.907626,-87.638566,NEAR NORTH SIDE,2,9,11,24,8.333333333333334,37.5,45.833333333333336,1-14%,30-99%,30-99%
475,a3a859c4-a135-11e9-9cda-0a87ae2ba916,MLK Jr Dr & 29th St,19,41.842052,-87.617,DOUGLAS,4,8,12,24,16.666666666666668,33.333333333333336,50.0,15-29%,30-99%,30-99%
476,a3a85eda-a135-11e9-9cda-0a87ae2ba916,Wolcott (Ravenswood) Ave & Montrose Ave,15,41.961406,-87.676169,NORTH CENTER,0,0,0,24,0.0,0.0,0.0,0%,0%,0%
477,a3a866a5-a135-11e9-9cda-0a87ae2ba916,Western Ave & Leland Ave,19,41.966399801840986,-87.68870428204536,LINCOLN SQUARE,0,0,0,24,0.0,0.0,0.0,0%,0%,0%
478,a3a86c05-a135-11e9-9cda-0a87ae2ba916,Sheridan Rd & Irving Park Rd,27,41.954245,-87.654406,LAKE VIEW,0,0,0,24,0.0,0.0,0.0,0%,0%,0%
479,a3a8711c-a135-11e9-9cda-0a87ae2ba916,Morgan St & Polk St,19,41.871737,-87.65103,NEAR WEST SIDE,5,2,7,24,20.833333333333332,8.333333333333334,29.166666666666668,15-29%,1-14%,15-29%
480,a3a87631-a135-11e9-9cda-0a87ae2ba916,Damen Ave & Leland Ave,15,41.967094,-87.679028,LINCOLN SQUARE,0,0,0,24,0.0,0.0,0.0,0%,0%,0%
481,a3a87b3f-a135-11e9-9cda-0a87ae2ba916,Lincoln Ave & Sunnyside Ave,15,41.963004,-87.684781,LINCOLN SQUARE,0,3,3,24,0.0,12.5,12.5,0%,1-14%,1-14%
482,a3a8804b-a135-11e9-9cda-0a87ae2ba916,Ravenswood Ave & Irving Park Rd,19,41.95469,-87.67393,NORTH CENTER,0,2,2,24,0.0,8.333333333333334,8.333333333333334,0%,1-14%,1-14%
483,a3a8855c-a135-11e9-9cda-0a87ae2ba916,Clarendon Ave & Junior Ter,23,41.961004,-87.649603,UPTOWN,0,0,0,24,0.0,0.0,0.0,0%,0%,0%
484,a3a88a6d-a135-11e9-9cda-0a87ae2ba916,Ashland Ave & Belle Plaine Ave,11,41.956057,-87.668835,LAKE VIEW,0,0,0,24,0.0,0.0,0.0,0%,0%,0%
485,a3a88f84-a135-11e9-9cda-0a87ae2ba916,Shore Dr & 55th St,19,41.795212,-87.580715,HYDE PARK,0,4,4,24,0.0,16.666666666666668,16.666666666666668,0%,15-29%,15-29%
486,a3a89488-a135-11e9-9cda-0a87ae2ba916,Woodlawn Ave & 55th St,19,41.795264,-87.596471,HYDE PARK,5,0,5,24,20.833333333333332,0.0,20.833333333333332,15-29%,0%,15-29%
487,a3a8999a-a135-11e9-9cda-0a87ae2ba916,Montrose Harbor,31,41.963982,-87.638181,UPTOWN,0,0,0,24,0.0,0.0,0.0,0%,0%,0%
488,a3a89ea8-a135-11e9-9cda-0a87ae2ba916,Ashland Ave & Wellington Ave,19,41.936083,-87.669807,LAKE VIEW,0,0,0,24,0.0,0.0,0.0,0%,0%,0%
489,a3a9309d-a135-11e9-9cda-0a87ae2ba916,Clarendon Ave & Leland Ave,15,41.967968,-87.650001,UPTOWN,0,0,0,24,0.0,0.0,0.0,0%,0%,0%
490,a3a93622-a135-11e9-9cda-0a87ae2ba916,Greenwood Ave & 47th St,15,41.809835,-87.599383,KENWOOD,0,0,0,24,0.0,0.0,0.0,0%,0%,0%
491,a3a93b6d-a135-11e9-9cda-0a87ae2ba916,Winthrop Ave & Lawrence Ave,15,41.968812,-87.657659,UPTOWN,0,0,0,24,0.0,0.0,0.0,0%,0%,0%
492,a3a940a2-a135-11e9-9cda-0a87ae2ba916,Pine Grove Ave & Irving Park Rd,15,41.954383,-87.648043,LAKE VIEW,2,0,2,24,8.333333333333334,0.0,8.333333333333334,1-14%,0%,1-14%
493,a3a945c0-a135-11e9-9cda-0a87ae2ba916,Indiana Ave & Roosevelt Rd,39,41.867888,-87.623041,LOOP,1,0,1,24,4.166666666666667,0.0,4.166666666666667,1-14%,0%,1-14%
494,a3a94bc8-a135-11e9-9cda-0a87ae2ba916,Broadway & Sheridan Rd,15,41.952833,-87.649993,LAKE VIEW,0,7,7,24,0.0,29.166666666666668,29.166666666666668,0%,15-29%,15-29%
495,a3a95142-a135-11e9-9cda-0a87ae2ba916,Lincoln Ave & Waveland Ave,15,41.948797,-87.675278,NORTH CENTER,0,11,11,24,0.0,45.833333333333336,45.833333333333336,0%,30-99%,30-99%
496,a3a95669-a135-11e9-9cda-0a87ae2ba916,Logan Blvd & Elston Ave,27,41.929465,-87.684158,LOGAN SQUARE,0,0,0,24,0.0,0.0,0.0,0%,0%,0%
497,a3a95b7a-a135-11e9-9cda-0a87ae2ba916,California Ave & Francis Pl,15,41.91849115368695,-87.69742280244827,LOGAN SQUARE,0,0,0,24,0.0,0.0,0.0,0%,0%,0%
498,a3a9607f-a135-11e9-9cda-0a87ae2ba916,Kedzie Ave & Milwaukee Ave,35,41.929567,-87.707857,LOGAN SQUARE,0,0,0,24,0.0,0.0,0.0,0%,0%,0%
499,a3a965b2-a135-11e9-9cda-0a87ae2ba916,Hermitage Ave & Polk St,15,41.871514,-87.669886,NEAR WEST SIDE,8,0,8,24,33.333333333333336,0.0,33.333333333333336,30-99%,0%,30-99%
500,a3a96aca-a135-11e9-9cda-0a87ae2ba916,Halsted St & 37th St,11,41.827059,-87.64572,BRIDGEPORT,0,21,21,24,0.0,87.5,87.5,0%,30-99%,30-99%
501,a3a96fd5-a135-11e9-9cda-0a87ae2ba916,Rhodes Ave & 32nd St,11,41.836208,-87.613533,DOUGLAS,5,1,6,24,20.833333333333332,4.166666666666667,25.0,15-29%,1-14%,15-29%
502,a3a974e1-a135-11e9-9cda-0a87ae2ba916,Stetson Ave & South Water St,19,41.886835,-87.62232,LOOP,21,0,21,24,87.5,0.0,87.5,30-99%,0%,30-99%
503,a3a97a01-a135-11e9-9cda-0a87ae2ba916,Cottage Grove Ave & Oakwood Blvd,15,41.822985,-87.6071,GRAND BOULEVARD,6,0,6,24,25.0,0.0,25.0,15-29%,0%,15-29%
504,a3a98429-a135-11e9-9cda-0a87ae2ba916,Lake Park Ave & 47th St,15,41.809443,-87.591875,KENWOOD,0,0,0,24,0.0,0.0,0.0,0%,0%,0%
505,a3a9892f-a135-11e9-9cda-0a87ae2ba916,DuSable Lake Shore Dr & North Blvd,39,41.911722,-87.626804,LINCOLN PARK,0,0,0,24,0.0,0.0,0.0,0%,0%,0%
506,a3a98e37-a135-11e9-9cda-0a87ae2ba916,Stony Island Ave & 75th St,11,41.7586696704,-87.586882871,SOUTH SHORE,0,0,0,24,0.0,0.0,0.0,0%,0%,0%
507,a3a99346-a135-11e9-9cda-0a87ae2ba916,Cottage Grove Ave & 43rd St,11,41.816499,-87.606582,KENWOOD,0,0,0,24,0.0,0.0,0.0,0%,0%,0%
508,a3a9984a-a135-11e9-9cda-0a87ae2ba916,Indiana Ave & 31st St,11,41.838842,-87.621857,DOUGLAS,2,0,2,24,8.333333333333334,0.0,8.333333333333334,1-14%,0%,1-14%
509,a3a99d47-a135-11e9-9cda-0a87ae2ba916,Michigan Ave & 18th St,23,41.857813,-87.62455,NEAR SOUTH SIDE,0,0,0,24,0.0,0.0,0.0,0%,0%,0%
510,a3a9a24f-a135-11e9-9cda-0a87ae2ba916,Racine Ave & 15th St,15,41.861267,-87.656625,NEAR WEST SIDE,0,0,0,24,0.0,0.0,0.0,0%,0%,0%
511,a3a9a778-a135-11e9-9cda-0a87ae2ba916,Ashland Ave & 13th St,15,41.865234,-87.666507,NEAR WEST SIDE,0,0,0,24,0.0,0.0,0.0,0%,0%,0%
512,a3a9acc5-a135-11e9-9cda-0a87ae2ba916,California Ave & North Ave,11,41.910459,-87.698045,WEST TOWN,0,9,9,24,0.0,37.5,37.5,0%,30-99%,30-99%
513,a3a9b1d7-a135-11e9-9cda-0a87ae2ba916,Ashland Ave & Grand Ave,15,41.891072,-87.666611,WEST TOWN,0,0,0,24,0.0,0.0,0.0,0%,0%,0%
514,a3a9b6e9-a135-11e9-9cda-0a87ae2ba916,Wallace St & 35th St,15,41.83070705144085,-87.64125533401966,BRIDGEPORT,0,0,0,24,0.0,0.0,0.0,0%,0%,0%
515,a3a9bbf0-a135-11e9-9cda-0a87ae2ba916,Halsted St & 35th St,15,41.830661,-87.647172,BRIDGEPORT,0,0,0,24,0.0,0.0,0.0,0%,0%,0%
516,a3a9c0f6-a135-11e9-9cda-0a87ae2ba916,Morgan St & 31st St,11,41.8378,-87.65114,BRIDGEPORT,8,7,15,24,33.333333333333336,29.166666666666668,62.5,30-99%,15-29%,30-99%
517,a3a9c5f7-a135-11e9-9cda-0a87ae2ba916,Western Ave & 24th St,7,41.84847,-87.685109,LOWER WEST SIDE,0,0,0,24,0.0,0.0,0.0,0%,0%,0%
518,a3a9cafa-a135-11e9-9cda-0a87ae2ba916,Halsted St & Maxwell St,15,41.864883,-87.647071,NEAR WEST SIDE,2,0,2,24,8.333333333333334,0.0,8.333333333333334,1-14%,0%,1-14%
519,a3a9d00a-a135-11e9-9cda-0a87ae2ba916,LaSalle St & Jackson Blvd,35,41.878166,-87.631929,LOOP,12,0,12,24,50.0,0.0,50.0,30-99%,0%,30-99%
520,a3a9d529-a135-11e9-9cda-0a87ae2ba916,Michigan Ave & Jackson Blvd,23,41.878005,-87.624144,LOOP,0,2,2,24,0.0,8.333333333333334,8.333333333333334,0%,1-14%,1-14%
521,a3a9da3b-a135-11e9-9cda-0a87ae2ba916,Wood St & Hubbard St,19,41.889899,-87.671473,WEST TOWN,0,0,0,24,0.0,0.0,0.0,0%,0%,0%
522,a3a9df3a-a135-11e9-9cda-0a87ae2ba916,Franklin St & Adams St (Temp),15,41.87943409140013,-87.63550400733948,LOOP,11,3,14,24,45.833333333333336,12.5,58.333333333333336,30-99%,1-14%,30-99%
523,a3a9e44a-a135-11e9-9cda-0a87ae2ba916,Franklin St & Monroe St,31,41.880317,-87.635185,LOOP,12,0,12,24,50.0,0.0,50.0,30-99%,0%,30-99%
524,a3a9ecff-a135-11e9-9cda-0a87ae2ba916,Larrabee St & Armitage Ave,15,41.918084,-87.643749,LINCOLN PARK,0,0,0,24,0.0,0.0,0.0,0%,0%,0%
525,a3a9f256-a135-11e9-9cda-0a87ae2ba916,Wells St & Concord Ln,19,41.912133,-87.634656,LINCOLN PARK,3,1,4,24,12.5,4.166666666666667,16.666666666666668,1-14%,1-14%,15-29%
526,a3a9f76a-a135-11e9-9cda-0a87ae2ba916,Kedzie Ave & Palmer Ct,15,41.921525,-87.707322,LOGAN SQUARE,0,3,3,24,0.0,12.5,12.5,0%,1-14%,1-14%
527,a3a9fc75-a135-11e9-9cda-0a87ae2ba916,Wells St & Evergreen Ave,19,41.906724,-87.63483,NEAR NORTH SIDE,0,0,0,24,0.0,0.0,0.0,0%,0%,0%
528,a3aa017e-a135-11e9-9cda-0a87ae2ba916,Southport Ave & Clark St,11,41.957081,-87.664199,LAKE VIEW,0,0,0,24,0.0,0.0,0.0,0%,0%,0%
529,a3aa0699-a135-11e9-9cda-0a87ae2ba916,Broadway & Wilson Ave,23,41.965221,-87.658139,UPTOWN,0,0,0,24,0.0,0.0,0.0,0%,0%,0%
530,a3aa0bb7-a135-11e9-9cda-0a87ae2ba916,Broadway & Berwyn Ave,15,41.978116,-87.660134,EDGEWATER,0,0,0,24,0.0,0.0,0.0,0%,0%,0%
531,a3aa10ca-a135-11e9-9cda-0a87ae2ba916,Broadway & Argyle St,19,41.973815,-87.65966,UPTOWN,0,0,0,24,0.0,0.0,0.0,0%,0%,0%
532,a3aa1623-a135-11e9-9cda-0a87ae2ba916,Broadway & Belmont Ave,19,41.940106,-87.645451,LAKE VIEW,0,5,5,24,0.0,20.833333333333332,20.833333333333332,0%,15-29%,15-29%
533,a3aa1b5b-a135-11e9-9cda-0a87ae2ba916,Paulina St & Montrose Ave,15,41.961507,-87.671387,LAKE VIEW,0,0,0,24,0.0,0.0,0.0,0%,0%,0%
534,a3aa2078-a135-11e9-9cda-0a87ae2ba916,Lincoln Ave & Belle Plaine Ave,15,41.95600355078549,-87.68016144633293,NORTH CENTER,0,0,0,24,0.0,0.0,0.0,0%,0%,0%
535,a3aa259c-a135-11e9-9cda-0a87ae2ba916,Halsted St & Roscoe St,15,41.94367,-87.64895,LAKE VIEW,4,6,10,24,16.666666666666668,25.0,41.666666666666664,15-29%,15-29%,30-99%
536,a3aa2abb-a135-11e9-9cda-0a87ae2ba916,Broadway & Barry Ave,19,41.93758231600629,-87.6440978050232,LAKE VIEW,0,2,2,24,0.0,8.333333333333334,8.333333333333334,0%,1-14%,1-14%
537,a3aa2ff4-a135-11e9-9cda-0a87ae2ba916,Clark St & Schiller St,19,41.907993,-87.631501,NEAR NORTH SIDE,6,0,6,24,25.0,0.0,25.0,15-29%,0%,15-29%
538,a3aa35a4-a135-11e9-9cda-0a87ae2ba916,Sheffield Ave & Wrightwood Ave,31,41.928712,-87.653833,LINCOLN PARK,0,0,0,24,0.0,0.0,0.0,0%,0%,0%
539,a3aa3adf-a135-11e9-9cda-0a87ae2ba916,Broadway & Cornelia Ave,23,41.945529,-87.646439,LAKE VIEW,2,4,6,24,8.333333333333334,16.666666666666668,25.0,1-14%,15-29%,15-29%
540,a3aa4017-a135-11e9-9cda-0a87ae2ba916,Broadway & Waveland Ave,15,41.949074,-87.648636,LAKE VIEW,10,0,10,24,41.666666666666664,0.0,41.666666666666664,30-99%,0%,30-99%
541,a3aa453c-a135-11e9-9cda-0a87ae2ba916,Western Ave & Division St,23,41.902893,-87.687275,WEST TOWN,5,0,5,24,20.833333333333332,0.0,20.833333333333332,15-29%,0%,15-29%
542,a3aa4a58-a135-11e9-9cda-0a87ae2ba916,Sheridan Rd & Buena Ave,19,41.958494,-87.654966,UPTOWN,0,5,5,24,0.0,20.833333333333332,20.833333333333332,0%,15-29%,15-29%
543,a3aa4f80-a135-11e9-9cda-0a87ae2ba916,Southport Ave & Clybourn Ave,15,41.920771,-87.663712,LINCOLN PARK,6,1,7,24,25.0,4.166666666666667,29.166666666666668,15-29%,1-14%,15-29%
544,a3aa54a0-a135-11e9-9cda-0a87ae2ba916,Seeley Ave & Roscoe St,11,41.943403,-87.679618,NORTH CENTER,0,14,14,24,0.0,58.333333333333336,58.333333333333336,0%,30-99%,30-99%
545,a3aa59bb-a135-11e9-9cda-0a87ae2ba916,Leavitt St & Armitage Ave,11,41.917805,-87.682437,LOGAN SQUARE,0,0,0,24,0.0,0.0,0.0,0%,0%,0%
546,a3aa5ed1-a135-11e9-9cda-0a87ae2ba916,Damen Ave & Charleston St,11,41.920082,-87.677855,LOGAN SQUARE,0,1,1,24,0.0,4.166666666666667,4.166666666666667,0%,1-14%,1-14%
547,a3aa640c-a135-11e9-9cda-0a87ae2ba916,Leavitt St & Lawrence Ave,19,41.968885,-87.684001,LINCOLN SQUARE,0,0,0,24,0.0,0.0,0.0,0%,0%,0%
548,a3aa692e-a135-11e9-9cda-0a87ae2ba916,Clarendon Ave & Gordon Ter,15,41.95786652415174,-87.64950513839722,UPTOWN,4,0,4,24,16.666666666666668,0.0,16.666666666666668,15-29%,0%,15-29%
549,a3aa6e51-a135-11e9-9cda-0a87ae2ba916,Lakeview Ave & Fullerton Pkwy,19,41.925858,-87.638973,LINCOLN PARK,0,0,0,24,0.0,0.0,0.0,0%,0%,0%
550,a3aa7373-a135-11e9-9cda-0a87ae2ba916,Ravenswood Ave & Berteau Ave,15,41.957921,-87.673567,LAKE VIEW,0,4,4,24,0.0,16.666666666666668,16.666666666666668,0%,15-29%,15-29%
551,a3aa7897-a135-11e9-9cda-0a87ae2ba916,Elston Ave & Wabansia Ave,23,41.912919,-87.664169,WEST TOWN,0,0,0,24,0.0,0.0,0.0,0%,0%,0%
552,a3aa7db3-a135-11e9-9cda-0a87ae2ba916,Damen Ave & Sunnyside Ave,19,41.96325,-87.679258,LINCOLN SQUARE,0,0,0,24,0.0,0.0,0.0,0%,0%,0%
553,a3aa82d0-a135-11e9-9cda-0a87ae2ba916,Wood St & Taylor St (Temp),23,41.869265218438194,-87.67373085021973,NEAR WEST SIDE,3,0,3,24,12.5,0.0,12.5,1-14%,0%,1-14%
554,a3aa8ca0-a135-11e9-9cda-0a87ae2ba916,Southport Ave & Irving Park Rd,15,41.954177,-87.664358,LAKE VIEW,0,0,0,24,0.0,0.0,0.0,0%,0%,0%
555,a3aa91f4-a135-11e9-9cda-0a87ae2ba916,Greenview Ave & Diversey Pkwy,15,41.93258963429789,-87.66593635082245,LAKE VIEW,0,0,0,24,0.0,0.0,0.0,0%,0%,0%
556,a3aa9732-a135-11e9-9cda-0a87ae2ba916,Loomis St & Lexington St,19,41.87222873224032,-87.66136385500431,NEAR WEST SIDE,1,0,1,24,4.166666666666667,0.0,4.166666666666667,1-14%,0%,1-14%
557,a3aa9c65-a135-11e9-9cda-0a87ae2ba916,Wabash Ave & 9th St,19,41.870769,-87.625734,LOOP,4,0,4,24,16.666666666666668,0.0,16.666666666666668,15-29%,0%,15-29%
558,a3aaa17b-a135-11e9-9cda-0a87ae2ba916,Kimbark Ave & 53rd St,19,41.799568,-87.594747,HYDE PARK,0,0,0,24,0.0,0.0,0.0,0%,0%,0%
559,a3aaa68b-a135-11e9-9cda-0a87ae2ba916,Sheridan Rd & Lawrence Ave,19,41.969517,-87.654691,UPTOWN,1,0,1,24,4.166666666666667,0.0,4.166666666666667,1-14%,0%,1-14%
560,a3aaaba2-a135-11e9-9cda-0a87ae2ba916,Stockton Dr & Wrightwood Ave,15,41.93132,-87.638742,LINCOLN PARK,0,0,0,24,0.0,0.0,0.0,0%,0%,0%
561,a3aab0b6-a135-11e9-9cda-0a87ae2ba916,Clark St & Winnemac Ave,19,41.97334764047304,-87.6678554713726,UPTOWN,0,0,0,24,0.0,0.0,0.0,0%,0%,0%
562,a3aab5c1-a135-11e9-9cda-0a87ae2ba916,Clark St & Leland Ave,19,41.96708783918421,-87.66729086637497,UPTOWN,0,0,0,24,0.0,0.0,0.0,0%,0%,0%
563,a3aabad8-a135-11e9-9cda-0a87ae2ba916,Sheffield Ave & Webster Ave,19,41.92154,-87.653818,LINCOLN PARK,0,2,2,24,0.0,8.333333333333334,8.333333333333334,0%,1-14%,1-14%
564,a3aabfe3-a135-11e9-9cda-0a87ae2ba916,Ellis Ave & 58th St,19,41.788746,-87.601334,HYDE PARK,0,1,1,24,0.0,4.166666666666667,4.166666666666667,0%,1-14%,1-14%
565,a3aac4f9-a135-11e9-9cda-0a87ae2ba916,DuSable Lake Shore Dr & Diversey Pkwy,23,41.932588,-87.636427,LINCOLN PARK,0,0,0,24,0.0,0.0,0.0,0%,0%,0%
566,a3aaca0e-a135-11e9-9cda-0a87ae2ba916,Lincoln Ave & Addison St,19,41.946176,-87.673308,LAKE VIEW,0,12,12,24,0.0,50.0,50.0,0%,30-99%,30-99%
567,a3aacf29-a135-11e9-9cda-0a87ae2ba916,Halsted St & Clybourn Ave,27,41.909668,-87.648128,NEAR NORTH SIDE,0,0,0,24,0.0,0.0,0.0,0%,0%,0%
568,a3aad436-a135-11e9-9cda-0a87ae2ba916,Burling St & Diversey Pkwy,19,41.93314,-87.64776,LAKE VIEW,0,0,0,24,0.0,0.0,0.0,0%,0%,0%
569,a3aad940-a135-11e9-9cda-0a87ae2ba916,Ashland Ave & Blackhawk St,15,41.907066,-87.667252,WEST TOWN,0,9,9,24,0.0,37.5,37.5,0%,30-99%,30-99%
570,a3aade4c-a135-11e9-9cda-0a87ae2ba916,DuSable Lake Shore Dr & Belmont Ave,19,41.940775,-87.639192,LAKE VIEW,0,0,0,24,0.0,0.0,0.0,0%,0%,0%
571,a3aae35a-a135-11e9-9cda-0a87ae2ba916,Calumet Ave & 35th St,15,41.831379,-87.618034,DOUGLAS,6,0,6,24,25.0,0.0,25.0,15-29%,0%,15-29%
572,a3aae870-a135-11e9-9cda-0a87ae2ba916,Cottage Grove Ave & 47th St,15,41.809855,-87.606755,GRAND BOULEVARD,2,0,2,24,8.333333333333334,0.0,8.333333333333334,1-14%,0%,1-14%
573,a3aaed81-a135-11e9-9cda-0a87ae2ba916,Clark St & Chicago Ave,19,41.89675,-87.63089,NEAR NORTH SIDE,6,0,6,24,25.0,0.0,25.0,15-29%,0%,15-29%
574,a3aaf2ac-a135-11e9-9cda-0a87ae2ba916,Calumet Ave & 18th St,15,41.85761755293753,-87.61941075325012,NEAR SOUTH SIDE,0,8,8,24,0.0,33.333333333333336,33.333333333333336,0%,30-99%,30-99%
575,a3aaf7bc-a135-11e9-9cda-0a87ae2ba916,Emerald Ave & 31st St,11,41.838198,-87.645143,BRIDGEPORT,0,8,8,24,0.0,33.333333333333336,33.333333333333336,0%,30-99%,30-99%
576,a3aafccb-a135-11e9-9cda-0a87ae2ba916,Clark St & Wrightwood Ave,15,41.929546,-87.643118,LINCOLN PARK,1,0,1,24,4.166666666666667,0.0,4.166666666666667,1-14%,0%,1-14%
577,a3ab812d-a135-11e9-9cda-0a87ae2ba916,Adler Planetarium,39,41.866095,-87.607267,NEAR SOUTH SIDE,0,0,0,24,0.0,0.0,0.0,0%,0%,0%
578,a3ab86b6-a135-11e9-9cda-0a87ae2ba916,Wolcott Ave & Polk St,23,41.871262,-87.673688,NEAR WEST SIDE,0,0,0,24,0.0,0.0,0.0,0%,0%,0%
579,a3ab8bee-a135-11e9-9cda-0a87ae2ba916,Racine Ave & Wrightwood Ave,15,41.928887,-87.658971,LINCOLN PARK,0,7,7,24,0.0,29.166666666666668,29.166666666666668,0%,15-29%,15-29%
580,a3ab9119-a135-11e9-9cda-0a87ae2ba916,Ravenswood Ave & Lawrence Ave,47,41.968445,-87.674226,LINCOLN SQUARE,0,0,0,24,0.0,0.0,0.0,0%,0%,0%
581,a3ac0fff-a135-11e9-9cda-0a87ae2ba916,Lake Park Ave & 56th St,19,41.793242,-87.587782,HYDE PARK,0,0,0,24,0.0,0.0,0.0,0%,0%,0%
582,a3ac1607-a135-11e9-9cda-0a87ae2ba916,Ada St & Washington Blvd,15,41.88283,-87.661206,NEAR WEST SIDE,1,0,1,24,4.166666666666667,0.0,4.166666666666667,1-14%,0%,1-14%
583,a3ac1bc9-a135-11e9-9cda-0a87ae2ba916,Ashland Ave & Grace St,15,41.950687,-87.6687,LAKE VIEW,0,0,0,24,0.0,0.0,0.0,0%,0%,0%
584,a3ac213b-a135-11e9-9cda-0a87ae2ba916,California Ave & 21st St,15,41.8537957934734,-87.69582286477088,SOUTH LAWNDALE,0,0,0,24,0.0,0.0,0.0,0%,0%,0%
585,a3ac2671-a135-11e9-9cda-0a87ae2ba916,Halsted St & Wrightwood Ave,15,41.929143,-87.649077,LINCOLN PARK,3,1,4,24,12.5,4.166666666666667,16.666666666666668,1-14%,1-14%,15-29%
586,a3ac2b9c-a135-11e9-9cda-0a87ae2ba916,Ashland Ave & Chicago Ave,15,41.89595435734305,-87.6677280664444,WEST TOWN,0,10,10,24,0.0,41.666666666666664,41.666666666666664,0%,30-99%,30-99%
587,a3ac30c5-a135-11e9-9cda-0a87ae2ba916,Cottage Grove Ave & 51st St,15,41.803038,-87.606615,GRAND BOULEVARD,0,0,0,24,0.0,0.0,0.0,0%,0%,0%
588,a3ac35ed-a135-11e9-9cda-0a87ae2ba916,Jeffery Blvd & 67th St,11,41.77351755125,-87.5771428255,WOODLAWN,0,0,0,24,0.0,0.0,0.0,0%,0%,0%
589,a3ac3b03-a135-11e9-9cda-0a87ae2ba916,Clark St & Touhy Ave,15,42.01256011541,-87.6743671152,ROGERS PARK,0,0,0,24,0.0,0.0,0.0,0%,0%,0%
590,a3ac4024-a135-11e9-9cda-0a87ae2ba916,Sheridan Rd & Greenleaf Ave,15,42.01058656284,-87.6624120948,ROGERS PARK,0,0,0,24,0.0,0.0,0.0,0%,0%,0%
591,a3ac4548-a135-11e9-9cda-0a87ae2ba916,South Shore Dr & 67th St,15,41.773643,-87.567514,WOODLAWN,0,0,0,24,0.0,0.0,0.0,0%,0%,0%
592,a3ac4a7c-a135-11e9-9cda-0a87ae2ba916,Stony Island Ave & 71st St,11,41.7664929373,-87.5864608775,SOUTH SHORE,0,0,0,24,0.0,0.0,0.0,0%,0%,0%
593,a3ac54af-a135-11e9-9cda-0a87ae2ba916,Larrabee St & Division St,23,41.90348607004,-87.6433534936,NEAR NORTH SIDE,0,0,0,24,0.0,0.0,0.0,0%,0%,0%
594,a3ac6f28-a135-11e9-9cda-0a87ae2ba916,Larrabee St & Oak St,19,41.90021949323,-87.6429854676,NEAR NORTH SIDE,0,0,0,24,0.0,0.0,0.0,0%,0%,0%
595,a3ac7444-a135-11e9-9cda-0a87ae2ba916,Halsted St & North Branch St,15,41.89939028549696,-87.64854490756989,NEAR NORTH SIDE,1,0,1,24,4.166666666666667,0.0,4.166666666666667,1-14%,0%,1-14%
596,a3ac7978-a135-11e9-9cda-0a87ae2ba916,Loomis St & Archer Ave,11,41.84163253965,-87.6574349533,BRIDGEPORT,3,0,3,24,12.5,0.0,12.5,1-14%,0%,1-14%
597,a3ac7e9a-a135-11e9-9cda-0a87ae2ba916,Racine Ave & 35th St,15,41.83068856472101,-87.65621066093445,BRIDGEPORT,0,0,0,24,0.0,0.0,0.0,0%,0%,0%
598,a3ac83bc-a135-11e9-9cda-0a87ae2ba916,Ashland Ave & Archer Ave,15,41.83920868403,-87.6656098589,LOWER WEST SIDE,7,0,7,24,29.166666666666668,0.0,29.166666666666668,15-29%,0%,15-29%
599,a3ac88db-a135-11e9-9cda-0a87ae2ba916,Wood St & 35th St,11,41.83010465416,-87.6702983089,MCKINLEY PARK,9,0,9,24,37.5,0.0,37.5,30-99%,0%,30-99%
600,a3ac8dfb-a135-11e9-9cda-0a87ae2ba916,Calumet Ave & 21st St,15,41.85418424947,-87.6191537415,NEAR SOUTH SIDE,0,0,0,24,0.0,0.0,0.0,0%,0%,0%
601,a3ac9834-a135-11e9-9cda-0a87ae2ba916,Kedzie Ave & Chicago Ave,11,41.89546530305,-87.7061278837,HUMBOLDT PARK,0,0,0,24,0.0,0.0,0.0,0%,0%,0%
602,a3ac9d43-a135-11e9-9cda-0a87ae2ba916,Western Ave & Walton St,23,41.89841768945,-87.6865960164,WEST TOWN,0,0,0,24,0.0,0.0,0.0,0%,0%,0%
603,a3aca268-a135-11e9-9cda-0a87ae2ba916,Sacramento Blvd & Franklin Blvd,11,41.89046879243862,-87.70260751247406,HUMBOLDT PARK,0,0,0,24,0.0,0.0,0.0,0%,0%,0%
604,a3aca790-a135-11e9-9cda-0a87ae2ba916,Artesian Ave & Hubbard St,27,41.8895,-87.688257,WEST TOWN,0,0,0,24,0.0,0.0,0.0,0%,0%,0%
605,a3acacbc-a135-11e9-9cda-0a87ae2ba916,Kedzie Ave & Lake St,15,41.88460328501,-87.7063037436,EAST GARFIELD PARK,0,0,0,24,0.0,0.0,0.0,0%,0%,0%
606,a3acb1de-a135-11e9-9cda-0a87ae2ba916,California Ave & Lake St,11,41.88445395657,-87.6962981368,EAST GARFIELD PARK,0,0,0,24,0.0,0.0,0.0,0%,0%,0%
607,a3acb6f3-a135-11e9-9cda-0a87ae2ba916,Western Ave & Monroe St,15,41.8797877089,-87.686112808,NEAR WEST SIDE,0,7,7,24,0.0,29.166666666666668,29.166666666666668,0%,15-29%,15-29%
608,a3acbc0b-a135-11e9-9cda-0a87ae2ba916,Western Ave & Congress Pkwy,19,41.87474885079,-87.6864452757,NEAR WEST SIDE,0,0,0,24,0.0,0.0,0.0,0%,0%,0%
609,a3acc133-a135-11e9-9cda-0a87ae2ba916,Paulina St & Flournoy St,31,41.87306108789792,-87.66913488507271,NEAR WEST SIDE,0,0,0,24,0.0,0.0,0.0,0%,0%,0%
610,a3acc649-a135-11e9-9cda-0a87ae2ba916,Halsted St & 51st St,11,41.80183164049,-87.645213904,NEW CITY,0,24,24,24,0.0,100.0,100.0,0%,100%,100%
611,a3accb60-a135-11e9-9cda-0a87ae2ba916,Princeton Ave & Garfield Blvd,11,41.794982,-87.633124,FULLER PARK,0,8,8,24,0.0,33.333333333333336,33.333333333333336,0%,30-99%,30-99%
612,a3acd078-a135-11e9-9cda-0a87ae2ba916,Halsted St & 56th St,11,41.79292964599,-87.6449900565,ENGLEWOOD,0,0,0,24,0.0,0.0,0.0,0%,0%,0%
613,a3acd5b1-a135-11e9-9cda-0a87ae2ba916,Halsted St & 63rd St,11,41.77938114228,-87.6446208145,ENGLEWOOD,0,0,0,24,0.0,0.0,0.0,0%,0%,0%
614,a3acdae2-a135-11e9-9cda-0a87ae2ba916,Wentworth Ave & 63rd St,11,41.78007963264,-87.6297463052,ENGLEWOOD,0,0,0,24,0.0,0.0,0.0,0%,0%,0%
615,a3acdff9-a135-11e9-9cda-0a87ae2ba916,Halsted St & 69th St,11,41.76906172032,-87.6446135779,ENGLEWOOD,4,0,4,24,16.666666666666668,0.0,16.666666666666668,15-29%,0%,15-29%
616,a3ace51b-a135-11e9-9cda-0a87ae2ba916,Perry Ave & 69th St,11,41.76929308995,-87.6281959291,GREATER GRAND CROSSING,0,0,0,24,0.0,0.0,0.0,0%,0%,0%
617,a3acea44-a135-11e9-9cda-0a87ae2ba916,Calumet Ave & 71st St,11,41.76550800581,-87.616917925,GREATER GRAND CROSSING,0,0,0,24,0.0,0.0,0.0,0%,0%,0%
618,a3acef62-a135-11e9-9cda-0a87ae2ba916,Clark St & 9th St (AMLI),15,41.870816,-87.631246,LOOP,5,6,11,24,20.833333333333332,25.0,45.833333333333336,15-29%,15-29%,30-99%
619,a3acf4eb-a135-11e9-9cda-0a87ae2ba916,Jeffery Blvd & 76th St,11,41.75712006802,-87.5758393587,SOUTH SHORE,0,0,0,24,0.0,0.0,0.0,0%,0%,0%
620,a3acfa38-a135-11e9-9cda-0a87ae2ba916,Yates Blvd & 75th St,11,41.758768,-87.56644,SOUTH SHORE,0,0,0,24,0.0,0.0,0.0,0%,0%,0%
621,a3ad09b2-a135-11e9-9cda-0a87ae2ba916,South Shore Dr & 74th St,11,41.76218896038,-87.55927465,SOUTH SHORE,0,0,0,24,0.0,0.0,0.0,0%,0%,0%
622,a3ad0ecb-a135-11e9-9cda-0a87ae2ba916,Cottage Grove Ave & 71st St,11,41.76571903697,-87.604959713,GREATER GRAND CROSSING,0,0,0,24,0.0,0.0,0.0,0%,0%,0%
623,a3ad13e4-a135-11e9-9cda-0a87ae2ba916,Shields Ave & 28th Pl,11,41.842733,-87.635491,ARMOUR SQUARE,0,10,10,24,0.0,41.666666666666664,41.666666666666664,0%,30-99%,30-99%
624,a3ad1900-a135-11e9-9cda-0a87ae2ba916,Shields Ave & 31st St,15,41.838464,-87.635406,ARMOUR SQUARE,0,0,0,24,0.0,0.0,0.0,0%,0%,0%
625,a3ad1e12-a135-11e9-9cda-0a87ae2ba916,Wentworth Ave & 33rd St,15,41.83452988563,-87.6318229814,ARMOUR SQUARE,0,0,0,24,0.0,0.0,0.0,0%,0%,0%
626,a3ad2322-a135-11e9-9cda-0a87ae2ba916,Wentworth Ave & 35th St,15,41.830777,-87.632504,ARMOUR SQUARE,0,0,0,24,0.0,0.0,0.0,0%,0%,0%
627,a3ad2843-a135-11e9-9cda-0a87ae2ba916,Lake Park Ave & 35th St,19,41.83127423549,-87.6087991946,DOUGLAS,0,0,0,24,0.0,0.0,0.0,0%,0%,0%
628,a3ad2d57-a135-11e9-9cda-0a87ae2ba916,State St & Pershing Rd,11,41.82301523798,-87.6265680185,GRAND BOULEVARD,0,0,0,24,0.0,0.0,0.0,0%,0%,0%
629,a3ad327e-a135-11e9-9cda-0a87ae2ba916,Union Ave & Root St,11,41.819102,-87.643278,NEW CITY,0,0,0,24,0.0,0.0,0.0,0%,0%,0%
630,a3ad37c2-a135-11e9-9cda-0a87ae2ba916,Shields Ave & 43rd St,11,41.81620767856,-87.6348193497,FULLER PARK,0,0,0,24,0.0,0.0,0.0,0%,0%,0%
631,a3ad3d08-a135-11e9-9cda-0a87ae2ba916,Prairie Ave & 43rd St,15,41.81665889302,-87.6194124619,GRAND BOULEVARD,0,0,0,24,0.0,0.0,0.0,0%,0%,0%
632,a3ad42c3-a135-11e9-9cda-0a87ae2ba916,Halsted St & 47th Pl,11,41.80813391481,-87.6456165545,NEW CITY,0,0,0,24,0.0,0.0,0.0,0%,0%,0%
633,a3ad47f8-a135-11e9-9cda-0a87ae2ba916,Princeton Ave & 47th St,11,41.80931770924,-87.633449288,FULLER PARK,24,0,24,24,100.0,0.0,100.0,100%,0%,100%
634,a3ad4d1b-a135-11e9-9cda-0a87ae2ba916,Woodlawn Ave & Lake Park Ave,15,41.81409271048,-87.5970051479,KENWOOD,0,0,0,24,0.0,0.0,0.0,0%,0%,0%
635,a3ad523f-a135-11e9-9cda-0a87ae2ba916,Canal St & Taylor St,15,41.870257,-87.639474,NEAR WEST SIDE,0,1,1,24,0.0,4.166666666666667,4.166666666666667,0%,1-14%,1-14%
636,a3ad5764-a135-11e9-9cda-0a87ae2ba916,Calumet Ave & 51st St,11,41.80229465088,-87.6180535802,GRAND BOULEVARD,0,0,0,24,0.0,0.0,0.0,0%,0%,0%
637,a3ad5c90-a135-11e9-9cda-0a87ae2ba916,Dorchester Ave & 49th St,15,41.805772,-87.592464,KENWOOD,0,0,0,24,0.0,0.0,0.0,0%,0%,0%
638,a3ad61c2-a135-11e9-9cda-0a87ae2ba916,Cornell Ave & Hyde Park Blvd,19,41.802406,-87.586924,HYDE PARK,0,0,0,24,0.0,0.0,0.0,0%,0%,0%
639,a3ad66e6-a135-11e9-9cda-0a87ae2ba916,Ellis Ave & 53rd St,11,41.79933626261,-87.6009581145,HYDE PARK,4,0,4,24,16.666666666666668,0.0,16.666666666666668,15-29%,0%,15-29%
640,a3ad6c01-a135-11e9-9cda-0a87ae2ba916,Lake Park Ave & 53rd St,15,41.79949429373,-87.5864498959,HYDE PARK,0,0,0,24,0.0,0.0,0.0,0%,0%,0%
641,a3ad711d-a135-11e9-9cda-0a87ae2ba916,Ellis Ave & 55th St,19,41.79430062054,-87.6014497734,HYDE PARK,11,0,11,24,45.833333333333336,0.0,45.833333333333336,30-99%,0%,30-99%
642,a3ad7636-a135-11e9-9cda-0a87ae2ba916,MLK Jr Dr & 56th St,11,41.79342945658,-87.6158532619,WASHINGTON PARK,24,0,24,24,100.0,0.0,100.0,100%,0%,100%
643,a3ad7b51-a135-11e9-9cda-0a87ae2ba916,DuSable Museum,11,41.79156801058,-87.6078521774,WASHINGTON PARK,0,0,0,24,0.0,0.0,0.0,0%,0%,0%
644,a3ad8072-a135-11e9-9cda-0a87ae2ba916,University Ave & 57th St,31,41.791478,-87.599861,HYDE PARK,2,0,2,24,8.333333333333334,0.0,8.333333333333334,1-14%,0%,1-14%
645,a3ad8587-a135-11e9-9cda-0a87ae2ba916,Museum of Science and Industry,27,41.79172820953,-87.583945009,HYDE PARK,0,0,0,24,0.0,0.0,0.0,0%,0%,0%
646,a3ad8aa3-a135-11e9-9cda-0a87ae2ba916,Harper Ave & 59th St,15,41.78794281287,-87.5883151702,HYDE PARK,0,3,3,24,0.0,12.5,12.5,0%,1-14%,1-14%
647,a3ad8fd9-a135-11e9-9cda-0a87ae2ba916,Ellis Ave & 60th St,19,41.78509714636,-87.6010727606,WOODLAWN,3,0,3,24,12.5,0.0,12.5,1-14%,0%,1-14%
648,a3ad95a7-a135-11e9-9cda-0a87ae2ba916,Cottage Grove Ave & 63rd St,15,41.78053094070882,-87.6059702038765,WOODLAWN,0,2,2,24,0.0,8.333333333333334,8.333333333333334,0%,1-14%,1-14%
649,a3ad9ad9-a135-11e9-9cda-0a87ae2ba916,Dorchester Ave & 63rd St,11,41.7804056457,-87.5914159893,WOODLAWN,0,0,0,24,0.0,0.0,0.0,0%,0%,0%
650,a3ada002-a135-11e9-9cda-0a87ae2ba916,Cottage Grove Ave & 67th St,11,41.77372095205,-87.60563486,WOODLAWN,0,0,0,24,0.0,0.0,0.0,0%,0%,0%
651,a3ada52f-a135-11e9-9cda-0a87ae2ba916,MLK Jr Dr & 63rd St,11,41.78008063659,-87.6159428567,GREATER GRAND CROSSING,0,0,0,24,0.0,0.0,0.0,0%,0%,0%
652,a3adaa52-a135-11e9-9cda-0a87ae2ba916,Eberhart Ave & 61st St,11,41.784071072761,-87.61448353528975,WOODLAWN,0,1,1,24,0.0,4.166666666666667,4.166666666666667,0%,1-14%,1-14%
653,a3adaf6b-a135-11e9-9cda-0a87ae2ba916,Clark St & Lunt Ave,19,42.00901118058077,-87.67411172389984,ROGERS PARK,7,0,7,24,29.166666666666668,0.0,29.166666666666668,15-29%,0%,15-29%
654,a3adb48a-a135-11e9-9cda-0a87ae2ba916,Kedzie Ave & Harrison St,11,41.87359967462,-87.7048707493,EAST GARFIELD PARK,0,0,0,24,0.0,0.0,0.0,0%,0%,0%
655,a3adb9a3-a135-11e9-9cda-0a87ae2ba916,Ogden Ave & Roosevelt Rd,19,41.86650148316,-87.68469707,NEAR WEST SIDE,0,0,0,24,0.0,0.0,0.0,0%,0%,0%
656,a3adbedf-a135-11e9-9cda-0a87ae2ba916,Kedzie Ave & Roosevelt Rd,11,41.86649278172,-87.7064961757,NORTH LAWNDALE,0,0,0,24,0.0,0.0,0.0,0%,0%,0%
657,a3adc3f6-a135-11e9-9cda-0a87ae2ba916,Fairfield Ave & Roosevelt Rd,11,41.866624,-87.694521,NORTH LAWNDALE,0,0,0,24,0.0,0.0,0.0,0%,0%,0%
658,a3adc925-a135-11e9-9cda-0a87ae2ba916,Washtenaw Ave & Ogden Ave,15,41.86193049278259,-87.69345045089722,NORTH LAWNDALE,0,0,0,24,0.0,0.0,0.0,0%,0%,0%
659,a3adce47-a135-11e9-9cda-0a87ae2ba916,Central Park Ave & Ogden Ave,15,41.854063503874464,-87.71511733531952,NORTH LAWNDALE,0,0,0,24,0.0,0.0,0.0,0%,0%,0%
660,a3add365-a135-11e9-9cda-0a87ae2ba916,Kedzie Ave & 21st St,11,41.85353363213,-87.7050730318,SOUTH LAWNDALE,24,0,24,24,100.0,0.0,100.0,100%,0%,100%
661,a3add889-a135-11e9-9cda-0a87ae2ba916,Central Park Ave & 24th St,11,41.8481,-87.715068,SOUTH LAWNDALE,0,0,0,24,0.0,0.0,0.0,0%,0%,0%
662,a3addda0-a135-11e9-9cda-0a87ae2ba916,Kedzie Ave & 24th St,11,41.848193,-87.705412,SOUTH LAWNDALE,0,15,15,24,0.0,62.5,62.5,0%,30-99%,30-99%
663,a3ade2c3-a135-11e9-9cda-0a87ae2ba916,California Ave & 23rd Pl,11,41.84910969176,-87.6951398068,SOUTH LAWNDALE,0,0,0,24,0.0,0.0,0.0,0%,0%,0%
664,a3ade7de-a135-11e9-9cda-0a87ae2ba916,Millard Ave & 26th St,7,41.84453112462163,-87.71592199802399,SOUTH LAWNDALE,0,0,0,24,0.0,0.0,0.0,0%,0%,0%
665,a3aded13-a135-11e9-9cda-0a87ae2ba916,Albany Ave & 26th St,11,41.844507,-87.701655,SOUTH LAWNDALE,0,0,0,24,0.0,0.0,0.0,0%,0%,0%
666,a3ae687f-a135-11e9-9cda-0a87ae2ba916,California Ave & 26th St,11,41.8436799145765,-87.69496858119965,SOUTH LAWNDALE,0,0,0,24,0.0,0.0,0.0,0%,0%,0%
667,a3ae6e48-a135-11e9-9cda-0a87ae2ba916,Western Ave & 28th St,11,41.84151770807,-87.6851314409,LOWER WEST SIDE,0,0,0,24,0.0,0.0,0.0,0%,0%,0%
668,a3ae737f-a135-11e9-9cda-0a87ae2ba916,Glenwood Ave & Morse Ave,15,42.00797192287,-87.6655023944,ROGERS PARK,0,0,0,24,0.0,0.0,0.0,0%,0%,0%
669,a3ae78ab-a135-11e9-9cda-0a87ae2ba916,Warren Park East,11,42.00454962194,-87.6806661451,WEST RIDGE,0,0,0,24,0.0,0.0,0.0,0%,0%,0%
670,a3ae7dc3-a135-11e9-9cda-0a87ae2ba916,Clark St & Columbia Ave,15,42.00445062934,-87.6724024047,ROGERS PARK,0,0,0,24,0.0,0.0,0.0,0%,0%,0%
671,a3ae82e0-a135-11e9-9cda-0a87ae2ba916,Warren Park West,11,42.001785,-87.688829,WEST RIDGE,0,0,0,24,0.0,0.0,0.0,0%,0%,0%
672,a3ae87fa-a135-11e9-9cda-0a87ae2ba916,Sheridan Rd & Loyola Ave,23,42.00104377979,-87.6611982433,ROGERS PARK,0,5,5,24,0.0,20.833333333333332,20.833333333333332,0%,15-29%,15-29%
673,a3ae8d13-a135-11e9-9cda-0a87ae2ba916,Western Ave & Granville Ave,11,41.99416136902,-87.689438282,WEST RIDGE,0,0,0,24,0.0,0.0,0.0,0%,0%,0%
674,a3ae923d-a135-11e9-9cda-0a87ae2ba916,Clark St & Schreiber Ave,15,41.999897,-87.670073,ROGERS PARK,0,3,3,24,0.0,12.5,12.5,0%,1-14%,1-14%
675,a3af1767-a135-11e9-9cda-0a87ae2ba916,Broadway & Granville Ave,23,41.9947796884,-87.6602845349,EDGEWATER,0,0,0,24,0.0,0.0,0.0,0%,0%,0%
676,a3af1cec-a135-11e9-9cda-0a87ae2ba916,Maplewood Ave & Peterson Ave,11,41.99023602867,-87.6933696402,WEST RIDGE,0,0,0,24,0.0,0.0,0.0,0%,0%,0%
677,a3af2216-a135-11e9-9cda-0a87ae2ba916,2112 W Peterson Ave,11,41.991178,-87.683593,WEST RIDGE,0,0,0,24,0.0,0.0,0.0,0%,0%,0%
678,a3af2737-a135-11e9-9cda-0a87ae2ba916,Clark St & Elmdale Ave,15,41.99086044812557,-87.66972362995148,EDGEWATER,0,0,0,24,0.0,0.0,0.0,0%,0%,0%
679,a3af2c5f-a135-11e9-9cda-0a87ae2ba916,Broadway & Thorndale Ave,19,41.98974251144,-87.6601406209,EDGEWATER,0,1,1,24,0.0,4.166666666666667,4.166666666666667,0%,1-14%,1-14%
680,a3af368c-a135-11e9-9cda-0a87ae2ba916,Clark St & Bryn Mawr Ave,15,41.983593,-87.669154,EDGEWATER,0,3,3,24,0.0,12.5,12.5,0%,1-14%,1-14%
681,a3af3bac-a135-11e9-9cda-0a87ae2ba916,Broadway & Ridge Ave,15,41.9840446107,-87.6602738295,EDGEWATER,0,5,5,24,0.0,20.833333333333332,20.833333333333332,0%,15-29%,15-29%
682,a3af40f1-a135-11e9-9cda-0a87ae2ba916,Winchester (Ravenswood) Ave & Balmoral Ave,15,41.979762,-87.67753,LINCOLN SQUARE,0,1,1,24,0.0,4.166666666666667,4.166666666666667,0%,1-14%,1-14%
683,a3af460f-a135-11e9-9cda-0a87ae2ba916,Clark St & Berwyn Ave,19,41.97803062248656,-87.66856491565704,EDGEWATER,0,3,3,24,0.0,12.5,12.5,0%,1-14%,1-14%
684,a3af4b26-a135-11e9-9cda-0a87ae2ba916,Damen Ave & Foster Ave,15,41.97561480459,-87.6794590387,LINCOLN SQUARE,0,0,0,24,0.0,0.0,0.0,0%,0%,0%
685,a3af52bc-a135-11e9-9cda-0a87ae2ba916,Marine Dr & Ainslie St,23,41.9716,-87.650154,UPTOWN,0,0,0,24,0.0,0.0,0.0,0%,0%,0%
686,a3af5804-a135-11e9-9cda-0a87ae2ba916,Ridge Blvd & Touhy Ave,11,42.01213227742,-87.6829126443,ROGERS PARK,0,0,0,24,0.0,0.0,0.0,0%,0%,0%
687,a3af5d1c-a135-11e9-9cda-0a87ae2ba916,Western Ave & Lunt Ave,15,42.0085943972,-87.6904922389,WEST RIDGE,0,0,0,24,0.0,0.0,0.0,0%,0%,0%
688,a3af624c-a135-11e9-9cda-0a87ae2ba916,Budlong Woods Library,11,41.98366470886,-87.6964225611,WEST RIDGE,0,0,0,24,0.0,0.0,0.0,0%,0%,0%
689,a3af6c2f-a135-11e9-9cda-0a87ae2ba916,St. Louis Ave & Balmoral Ave,15,41.98039423475,-87.7161149615,NORTH PARK,0,0,0,24,0.0,0.0,0.0,0%,0%,0%
690,a3af71a9-a135-11e9-9cda-0a87ae2ba916,Kedzie Ave & Foster Ave,11,41.975672,-87.709261,NORTH PARK,0,0,0,24,0.0,0.0,0.0,0%,0%,0%
691,a3af76f8-a135-11e9-9cda-0a87ae2ba916,Francisco Ave & Foster Ave,15,41.97563272521,-87.7014194389,LINCOLN SQUARE,0,0,0,24,0.0,0.0,0.0,0%,0%,0%
692,a3af7c0e-a135-11e9-9cda-0a87ae2ba916,Lincoln Ave & Winona St,15,41.97491129677,-87.6925025594,LINCOLN SQUARE,0,0,0,24,0.0,0.0,0.0,0%,0%,0%
693,a3af8123-a135-11e9-9cda-0a87ae2ba916,Christiana Ave & Lawrence Ave,15,41.96835449363,-87.7118306675,ALBANY PARK,0,0,0,24,0.0,0.0,0.0,0%,0%,0%
694,a3af8642-a135-11e9-9cda-0a87ae2ba916,Washtenaw Ave & Lawrence Ave,15,41.968987,-87.696027,LINCOLN SQUARE,0,0,0,24,0.0,0.0,0.0,0%,0%,0%
695,a3af8b51-a135-11e9-9cda-0a87ae2ba916,Kedzie Ave & Leland Ave,15,41.96668636205,-87.7080519806,ALBANY PARK,0,13,13,24,0.0,54.166666666666664,54.166666666666664,0%,30-99%,30-99%
696,a3af9064-a135-11e9-9cda-0a87ae2ba916,Manor Ave & Leland Ave,11,41.965875,-87.700825,ALBANY PARK,0,20,20,24,0.0,83.33333333333333,83.33333333333333,0%,30-99%,30-99%
697,a3af956e-a135-11e9-9cda-0a87ae2ba916,Rockwell St & Eastwood Ave,15,41.96590013976,-87.6936384935,LINCOLN SQUARE,0,0,0,24,0.0,0.0,0.0,0%,0%,0%
